{"last_updated":1573852861,"ttl":2,"data":{"stations":[{"station_id":"2","external_id":"a3a36d9e-a135-11e9-9cda-0a87ae2ba916","name":"Buckingham Fountain","short_name":"15541","lat":41.87651122881695,"lon":-87.62054800987242,"rental_methods":["CREDITCARD","TRANSITCARD","KEY"],"capacity":39,"electric_bike_surcharge_waiver":false,"eightd_has_key_dispenser":false,"has_kiosk":true},{"station_id":"3","external_id":"a3a37378-a135-11e9-9cda-0a87ae2ba916","name":"Shedd Aquarium","short_name":"15544","lat":41.86722595682,"lon":-87.6153553902,"rental_methods":["CREDITCARD","TRANSITCARD","KEY"],"capacity":55,"electric_bike_surcharge_waiver":false,"eightd_has_key_dispenser":false,"has_kiosk":true},{"station_id":"4","external_id":"a3a378ca-a135-11e9-9cda-0a87ae2ba916","name":"Burnham Harbor","short_name":"15545","lat":41.856268,"lon":-87.613348,"rental_methods":["CREDITCARD","TRANSITCARD","KEY"],"capacity":23,"electric_bike_surcharge_waiver":false,"eightd_has_key_dispenser":false,"has_kiosk":true},{"station_id":"5","external_id":"a3a37e26-a135-11e9-9cda-0a87ae2ba916","name":"State St & Harrison St","short_name":"SL-007","lat":41.874053,"lon":-87.627716,"rental_methods":["CREDITCARD","TRANSITCARD","KEY"],"capacity":23,"electric_bike_surcharge_waiver":false,"eightd_has_key_dispenser":false,"has_kiosk":true},{"station_id":"6","external_id":"a3a38363-a135-11e9-9cda-0a87ae2ba916","name":"Dusable Harbor","short_name":"KA1503000064","lat":41.886976,"lon":-87.612813,"rental_methods":["CREDITCARD","TRANSITCARD","KEY"],"capacity":39,"electric_bike_surcharge_waiver":false,"eightd_has_key_dispenser":false,"has_kiosk":true},{"station_id":"7","external_id":"a3a3888b-a135-11e9-9cda-0a87ae2ba916","name":"Field Blvd & South Water St","short_name":"15534","lat":41.88634906269,"lon":-87.6175165471,"rental_methods":["CREDITCARD","TRANSITCARD","KEY"],"capacity":19,"electric_bike_surcharge_waiver":false,"eightd_has_key_dispenser":false,"has_kiosk":true},{"station_id":"9","external_id":"a3a39301-a135-11e9-9cda-0a87ae2ba916","name":"Leavitt St & Archer Ave","short_name":"KA1503000068","lat":41.82879201994,"lon":-87.6806044594,"rental_methods":["CREDITCARD","TRANSITCARD","KEY"],"capacity":15,"electric_bike_surcharge_waiver":false,"eightd_has_key_dispenser":false,"has_kiosk":true},{"station_id":"11","external_id":"a3a3983e-a135-11e9-9cda-0a87ae2ba916","name":"Jeffery Blvd & 71st St","short_name":"KA1503000018","lat":41.76663823695,"lon":-87.5764501141,"rental_methods":["CREDITCARD","TRANSITCARD","KEY"],"capacity":11,"electric_bike_surcharge_waiver":false,"eightd_has_key_dispenser":false,"has_kiosk":true},{"station_id":"12","external_id":"a3a39d55-a135-11e9-9cda-0a87ae2ba916","name":"South Shore Dr & 71st St","short_name":"KA1503000002","lat":41.7664094567,"lon":-87.5656875719,"rental_methods":["CREDITCARD","TRANSITCARD","KEY"],"capacity":15,"electric_bike_surcharge_waiver":false,"eightd_has_key_dispenser":false,"has_kiosk":true},{"station_id":"13","external_id":"a3a3a282-a135-11e9-9cda-0a87ae2ba916","name":"Wilton Ave & Diversey Pkwy","short_name":"TA1306000014","lat":41.932418,"lon":-87.652705,"rental_methods":["CREDITCARD","TRANSITCARD","KEY"],"capacity":35,"electric_bike_surcharge_waiver":false,"eightd_has_key_dispenser":false,"has_kiosk":true},{"station_id":"14","external_id":"a3a3a7b4-a135-11e9-9cda-0a87ae2ba916","name":"Morgan St & 18th St","short_name":"13163","lat":41.858086,"lon":-87.651073,"rental_methods":["CREDITCARD","TRANSITCARD","KEY"],"capacity":15,"electric_bike_surcharge_waiver":false,"eightd_has_key_dispenser":false,"has_kiosk":true},{"station_id":"15","external_id":"a3a3ace6-a135-11e9-9cda-0a87ae2ba916","name":"Racine Ave & 18th St","short_name":"13164","lat":41.858166,"lon":-87.656495,"rental_methods":["CREDITCARD","TRANSITCARD","KEY"],"capacity":15,"electric_bike_surcharge_waiver":false,"eightd_has_key_dispenser":false,"has_kiosk":true},{"station_id":"16","external_id":"a3a3b202-a135-11e9-9cda-0a87ae2ba916","name":"Paulina Ave & North Ave","short_name":"TA1305000037","lat":41.910337,"lon":-87.670072,"rental_methods":["CREDITCARD","TRANSITCARD","KEY"],"capacity":15,"electric_bike_surcharge_waiver":false,"eightd_has_key_dispenser":false,"has_kiosk":true},{"station_id":"17","external_id":"a3a3b731-a135-11e9-9cda-0a87ae2ba916","name":"Honore St & Division St","short_name":"TA1305000034","lat":41.903119,"lon":-87.673935,"rental_methods":["CREDITCARD","TRANSITCARD","KEY"],"capacity":23,"electric_bike_surcharge_waiver":false,"eightd_has_key_dispenser":false,"has_kiosk":true},{"station_id":"18","external_id":"a3a3bc53-a135-11e9-9cda-0a87ae2ba916","name":"Wacker Dr & Washington St","short_name":"KA1503000072","lat":41.883132,"lon":-87.637321,"rental_methods":["CREDITCARD","TRANSITCARD","KEY"],"capacity":19,"electric_bike_surcharge_waiver":false,"eightd_has_key_dispenser":false,"has_kiosk":true},{"station_id":"19","external_id":"a3a3c174-a135-11e9-9cda-0a87ae2ba916","name":"Throop (Loomis) St & Taylor St","short_name":"13139","lat":41.868968,"lon":-87.659141,"rental_methods":["CREDITCARD","TRANSITCARD","KEY"],"capacity":15,"electric_bike_surcharge_waiver":false,"eightd_has_key_dispenser":false,"has_kiosk":true},{"station_id":"20","external_id":"a3a3c696-a135-11e9-9cda-0a87ae2ba916","name":"Sheffield Ave & Kingsbury St","short_name":"13154","lat":41.910522,"lon":-87.653106,"rental_methods":["CREDITCARD","TRANSITCARD","KEY"],"capacity":15,"electric_bike_surcharge_waiver":false,"eightd_has_key_dispenser":false,"has_kiosk":true},{"station_id":"21","external_id":"a3a3cbac-a135-11e9-9cda-0a87ae2ba916","name":"Aberdeen St & Jackson Blvd","short_name":"13157","lat":41.87772613,"lon":-87.65478743,"rental_methods":["CREDITCARD","TRANSITCARD","KEY"],"capacity":23,"electric_bike_surcharge_waiver":false,"eightd_has_key_dispenser":false,"has_kiosk":true},{"station_id":"22","external_id":"a3a3d1b8-a135-11e9-9cda-0a87ae2ba916","name":"May St & Taylor St","short_name":"13160","lat":41.8694821,"lon":-87.6554864,"rental_methods":["CREDITCARD","TRANSITCARD","KEY"],"capacity":15,"electric_bike_surcharge_waiver":false,"eightd_has_key_dispenser":false,"has_kiosk":true},{"station_id":"23","external_id":"a3a3d6f0-a135-11e9-9cda-0a87ae2ba916","name":"Orleans St & Elm St","short_name":"TA1306000006","lat":41.902924,"lon":-87.637715,"rental_methods":["CREDITCARD","TRANSITCARD","KEY"],"capacity":15,"electric_bike_surcharge_waiver":false,"eightd_has_key_dispenser":false,"has_kiosk":true},{"station_id":"24","external_id":"a3a3dc37-a135-11e9-9cda-0a87ae2ba916","name":"Fairbanks Ct & Grand Ave","short_name":"TA1305000003","lat":41.8925,"lon":-87.6207,"rental_methods":["CREDITCARD","TRANSITCARD","KEY"],"capacity":15,"electric_bike_surcharge_waiver":false,"eightd_has_key_dispenser":false,"has_kiosk":true},{"station_id":"25","external_id":"a3a3e158-a135-11e9-9cda-0a87ae2ba916","name":"Michigan Ave & Pearson St","short_name":"13034","lat":41.89766,"lon":-87.62351,"rental_methods":["CREDITCARD","TRANSITCARD","KEY"],"capacity":23,"electric_bike_surcharge_waiver":false,"eightd_has_key_dispenser":false,"has_kiosk":true},{"station_id":"26","external_id":"a3a3e67b-a135-11e9-9cda-0a87ae2ba916","name":"McClurg Ct & Illinois St","short_name":"TA1306000013","lat":41.890359,"lon":-87.617532,"rental_methods":["CREDITCARD","TRANSITCARD","KEY"],"capacity":31,"electric_bike_surcharge_waiver":false,"eightd_has_key_dispenser":false,"has_kiosk":true},{"station_id":"27","external_id":"a3a3eb9a-a135-11e9-9cda-0a87ae2ba916","name":"Larrabee St & North Ave","short_name":"TA1306000008","lat":41.91021,"lon":-87.6435,"rental_methods":["CREDITCARD","TRANSITCARD","KEY"],"capacity":19,"electric_bike_surcharge_waiver":false,"eightd_has_key_dispenser":false,"has_kiosk":true},{"station_id":"28","external_id":"a3a3f0c6-a135-11e9-9cda-0a87ae2ba916","name":"Larrabee St & Menomonee St","short_name":"TA1306000007","lat":41.91468,"lon":-87.64332,"rental_methods":["CREDITCARD","TRANSITCARD","KEY"],"capacity":15,"electric_bike_surcharge_waiver":false,"eightd_has_key_dispenser":false,"has_kiosk":true},{"station_id":"29","external_id":"a3a3f5e9-a135-11e9-9cda-0a87ae2ba916","name":"Noble St & Milwaukee Ave","short_name":"13290","lat":41.90068,"lon":-87.6626,"rental_methods":["CREDITCARD","TRANSITCARD","KEY"],"capacity":15,"electric_bike_surcharge_waiver":false,"eightd_has_key_dispenser":false,"has_kiosk":true},{"station_id":"30","external_id":"a3a3fb5d-a135-11e9-9cda-0a87ae2ba916","name":"Ashland Ave & Augusta Blvd","short_name":"13248","lat":41.899643,"lon":-87.6677,"rental_methods":["CREDITCARD","TRANSITCARD","KEY"],"capacity":15,"electric_bike_surcharge_waiver":false,"eightd_has_key_dispenser":false,"has_kiosk":true},{"station_id":"31","external_id":"a3a40088-a135-11e9-9cda-0a87ae2ba916","name":"Franklin St & Chicago Ave (Temp)","short_name":"13017","lat":41.89685478404802,"lon":-87.63431310653687,"rental_methods":["CREDITCARD","TRANSITCARD","KEY"],"capacity":23,"electric_bike_surcharge_waiver":false,"eightd_has_key_dispenser":false,"has_kiosk":true},{"station_id":"32","external_id":"a3a405a1-a135-11e9-9cda-0a87ae2ba916","name":"Racine Ave & Congress Pkwy","short_name":"TA1306000025","lat":41.87464,"lon":-87.65703,"rental_methods":["CREDITCARD","TRANSITCARD","KEY"],"capacity":19,"electric_bike_surcharge_waiver":false,"eightd_has_key_dispenser":false,"has_kiosk":true},{"station_id":"33","external_id":"a3a40ad8-a135-11e9-9cda-0a87ae2ba916","name":"State St & Van Buren St","short_name":"TA1305000035","lat":41.877181,"lon":-87.627844,"rental_methods":["CREDITCARD","TRANSITCARD","KEY"],"capacity":27,"electric_bike_surcharge_waiver":false,"eightd_has_key_dispenser":false,"has_kiosk":true},{"station_id":"34","external_id":"a3a41004-a135-11e9-9cda-0a87ae2ba916","name":"Cannon Dr & Fullerton Ave","short_name":"13124","lat":41.9267559875,"lon":-87.6344287848,"rental_methods":["CREDITCARD","TRANSITCARD","KEY"],"capacity":15,"electric_bike_surcharge_waiver":false,"eightd_has_key_dispenser":false,"has_kiosk":true},{"station_id":"35","external_id":"a3a41526-a135-11e9-9cda-0a87ae2ba916","name":"Streeter Dr & Grand Ave","short_name":"13022","lat":41.892278,"lon":-87.612043,"rental_methods":["CREDITCARD","TRANSITCARD","KEY"],"capacity":47,"electric_bike_surcharge_waiver":false,"eightd_has_key_dispenser":false,"has_kiosk":true},{"station_id":"36","external_id":"a3a41af5-a135-11e9-9cda-0a87ae2ba916","name":"Franklin St & Jackson Blvd","short_name":"TA1305000025","lat":41.8777079559,"lon":-87.6353211408,"rental_methods":["CREDITCARD","TRANSITCARD","KEY"],"capacity":39,"electric_bike_surcharge_waiver":false,"eightd_has_key_dispenser":false,"has_kiosk":true},{"station_id":"37","external_id":"a3a4203a-a135-11e9-9cda-0a87ae2ba916","name":"Dearborn St & Adams St","short_name":"TA1305000005","lat":41.8793563587,"lon":-87.6297910363,"rental_methods":["CREDITCARD","TRANSITCARD","KEY"],"capacity":19,"electric_bike_surcharge_waiver":false,"eightd_has_key_dispenser":false,"has_kiosk":true},{"station_id":"38","external_id":"a3a42574-a135-11e9-9cda-0a87ae2ba916","name":"Clark St & Lake St","short_name":"KA1503000012","lat":41.88602082773,"lon":-87.6308760584,"rental_methods":["CREDITCARD","TRANSITCARD","KEY"],"capacity":27,"electric_bike_surcharge_waiver":false,"eightd_has_key_dispenser":false,"has_kiosk":true},{"station_id":"39","external_id":"a3a42a93-a135-11e9-9cda-0a87ae2ba916","name":"Wabash Ave & Adams St","short_name":"KA1503000015","lat":41.87947235235,"lon":-87.6256886059,"rental_methods":["CREDITCARD","TRANSITCARD","KEY"],"capacity":23,"electric_bike_surcharge_waiver":false,"eightd_has_key_dispenser":false,"has_kiosk":true},{"station_id":"40","external_id":"a3a42fa7-a135-11e9-9cda-0a87ae2ba916","name":"LaSalle St & Adams St","short_name":"KA1503000034","lat":41.87934437346,"lon":-87.6319852213,"rental_methods":["CREDITCARD","TRANSITCARD","KEY"],"capacity":15,"electric_bike_surcharge_waiver":false,"eightd_has_key_dispenser":false,"has_kiosk":true},{"station_id":"41","external_id":"a3a434ce-a135-11e9-9cda-0a87ae2ba916","name":"Federal St & Polk St","short_name":"SL-008","lat":41.87207763285,"lon":-87.6295437729,"rental_methods":["CREDITCARD","TRANSITCARD","KEY"],"capacity":19,"electric_bike_surcharge_waiver":false,"eightd_has_key_dispenser":false,"has_kiosk":true},{"station_id":"42","external_id":"a3a43a25-a135-11e9-9cda-0a87ae2ba916","name":"Wabash Ave & Cermak Rd","short_name":"TA1305000001","lat":41.852619,"lon":-87.626488,"rental_methods":["CREDITCARD","TRANSITCARD","KEY"],"capacity":11,"electric_bike_surcharge_waiver":false,"eightd_has_key_dispenser":false,"has_kiosk":true},{"station_id":"43","external_id":"a3a43f48-a135-11e9-9cda-0a87ae2ba916","name":"Michigan Ave & Washington St","short_name":"13001","lat":41.8839840647265,"lon":-87.6246839761734,"rental_methods":["CREDITCARD","TRANSITCARD","KEY"],"capacity":43,"electric_bike_surcharge_waiver":false,"eightd_has_key_dispenser":false,"has_kiosk":true},{"station_id":"44","external_id":"a3a44476-a135-11e9-9cda-0a87ae2ba916","name":"State St & Randolph St","short_name":"TA1305000029","lat":41.8847302006,"lon":-87.6277335692,"rental_methods":["CREDITCARD","TRANSITCARD","KEY"],"capacity":27,"electric_bike_surcharge_waiver":false,"eightd_has_key_dispenser":false,"has_kiosk":true},{"station_id":"45","external_id":"a3a4499f-a135-11e9-9cda-0a87ae2ba916","name":"Michigan Ave & Ida B Wells Dr","short_name":"TA1305000010","lat":41.876243,"lon":-87.624426,"rental_methods":["CREDITCARD","TRANSITCARD","KEY"],"capacity":15,"electric_bike_surcharge_waiver":false,"eightd_has_key_dispenser":false,"has_kiosk":true},{"station_id":"46","external_id":"a3a44ec7-a135-11e9-9cda-0a87ae2ba916","name":"Wells St & Walton St","short_name":"TA1306000011","lat":41.89993001,"lon":-87.63443007,"rental_methods":["CREDITCARD","TRANSITCARD","KEY"],"capacity":19,"electric_bike_surcharge_waiver":false,"eightd_has_key_dispenser":false,"has_kiosk":true},{"station_id":"47","external_id":"a3a453fa-a135-11e9-9cda-0a87ae2ba916","name":"State St & Kinzie St","short_name":"13050","lat":41.889187,"lon":-87.627754,"rental_methods":["CREDITCARD","TRANSITCARD","KEY"],"capacity":31,"electric_bike_surcharge_waiver":false,"eightd_has_key_dispenser":false,"has_kiosk":true},{"station_id":"48","external_id":"a3a4591a-a135-11e9-9cda-0a87ae2ba916","name":"Larrabee St & Kingsbury St","short_name":"TA1306000009","lat":41.897764,"lon":-87.642884,"rental_methods":["CREDITCARD","TRANSITCARD","KEY"],"capacity":43,"electric_bike_surcharge_waiver":false,"eightd_has_key_dispenser":false,"has_kiosk":true},{"station_id":"49","external_id":"a3a45e3b-a135-11e9-9cda-0a87ae2ba916","name":"Dearborn St & Monroe St","short_name":"TA1305000006","lat":41.881319815,"lon":-87.6295209193,"rental_methods":["CREDITCARD","TRANSITCARD","KEY"],"capacity":39,"electric_bike_surcharge_waiver":false,"eightd_has_key_dispenser":false,"has_kiosk":true},{"station_id":"50","external_id":"a3a46361-a135-11e9-9cda-0a87ae2ba916","name":"Clark St & Ida B Wells Dr","short_name":"TA1305000009","lat":41.8759326655,"lon":-87.6305845355,"rental_methods":["CREDITCARD","TRANSITCARD","KEY"],"capacity":35,"electric_bike_surcharge_waiver":false,"eightd_has_key_dispenser":false,"has_kiosk":true},{"station_id":"51","external_id":"a3a46896-a135-11e9-9cda-0a87ae2ba916","name":"Clark St & Randolph St","short_name":"TA1305000030","lat":41.884576228,"lon":-87.63188991,"rental_methods":["CREDITCARD","TRANSITCARD","KEY"],"capacity":39,"electric_bike_surcharge_waiver":false,"eightd_has_key_dispenser":false,"has_kiosk":true},{"station_id":"52","external_id":"a3a46e71-a135-11e9-9cda-0a87ae2ba916","name":"Michigan Ave & Lake St","short_name":"TA1305000011","lat":41.886024,"lon":-87.624117,"rental_methods":["CREDITCARD","TRANSITCARD","KEY"],"capacity":35,"electric_bike_surcharge_waiver":false,"eightd_has_key_dispenser":false,"has_kiosk":true},{"station_id":"53","external_id":"a3a4739d-a135-11e9-9cda-0a87ae2ba916","name":"Wells St & Huron St","short_name":"TA1306000012","lat":41.894722,"lon":-87.634362,"rental_methods":["CREDITCARD","TRANSITCARD","KEY"],"capacity":27,"electric_bike_surcharge_waiver":false,"eightd_has_key_dispenser":false,"has_kiosk":true},{"station_id":"54","external_id":"a3a478c9-a135-11e9-9cda-0a87ae2ba916","name":"Ogden Ave & Chicago Ave","short_name":"TA1305000020","lat":41.896362458,"lon":-87.6540612729,"rental_methods":["CREDITCARD","TRANSITCARD","KEY"],"capacity":19,"electric_bike_surcharge_waiver":false,"eightd_has_key_dispenser":false,"has_kiosk":true},{"station_id":"55","external_id":"a3a47dde-a135-11e9-9cda-0a87ae2ba916","name":"Halsted St & Roosevelt Rd","short_name":"TA1305000017","lat":41.867324,"lon":-87.648625,"rental_methods":["CREDITCARD","TRANSITCARD","KEY"],"capacity":23,"electric_bike_surcharge_waiver":false,"eightd_has_key_dispenser":false,"has_kiosk":true},{"station_id":"56","external_id":"a3a482fb-a135-11e9-9cda-0a87ae2ba916","name":"Desplaines St & Kinzie St","short_name":"TA1306000003","lat":41.888716036,"lon":-87.6444478533,"rental_methods":["CREDITCARD","TRANSITCARD","KEY"],"capacity":27,"electric_bike_surcharge_waiver":false,"eightd_has_key_dispenser":false,"has_kiosk":true},{"station_id":"57","external_id":"a3a4881d-a135-11e9-9cda-0a87ae2ba916","name":"Clinton St & Roosevelt Rd","short_name":"WL-008","lat":41.8671177825,"lon":-87.6410879593,"rental_methods":["CREDITCARD","TRANSITCARD","KEY"],"capacity":15,"electric_bike_surcharge_waiver":false,"eightd_has_key_dispenser":false,"has_kiosk":true},{"station_id":"58","external_id":"a3a48d5c-a135-11e9-9cda-0a87ae2ba916","name":"Marshfield Ave & Cortland St","short_name":"TA1305000039","lat":41.916017,"lon":-87.668879,"rental_methods":["CREDITCARD","TRANSITCARD","KEY"],"capacity":23,"electric_bike_surcharge_waiver":false,"eightd_has_key_dispenser":false,"has_kiosk":true},{"station_id":"59","external_id":"a3a49288-a135-11e9-9cda-0a87ae2ba916","name":"Wabash Ave & Roosevelt Rd","short_name":"TA1305000002","lat":41.867227,"lon":-87.625961,"rental_methods":["CREDITCARD","TRANSITCARD","KEY"],"capacity":23,"electric_bike_surcharge_waiver":false,"eightd_has_key_dispenser":false,"has_kiosk":true},{"station_id":"60","external_id":"a3a497b6-a135-11e9-9cda-0a87ae2ba916","name":"Dayton St & North Ave","short_name":"13058","lat":41.9105780349,"lon":-87.6494219288,"rental_methods":["CREDITCARD","TRANSITCARD","KEY"],"capacity":19,"electric_bike_surcharge_waiver":false,"eightd_has_key_dispenser":false,"has_kiosk":true},{"station_id":"61","external_id":"a3a49cd7-a135-11e9-9cda-0a87ae2ba916","name":"Wood St & Milwaukee Ave","short_name":"13221","lat":41.907655,"lon":-87.672552,"rental_methods":["CREDITCARD","TRANSITCARD","KEY"],"capacity":19,"electric_bike_surcharge_waiver":false,"eightd_has_key_dispenser":false,"has_kiosk":true},{"station_id":"62","external_id":"a3a4a202-a135-11e9-9cda-0a87ae2ba916","name":"McCormick Place","short_name":"TA1305000004","lat":41.8513751729,"lon":-87.6188346489,"rental_methods":["CREDITCARD","TRANSITCARD","KEY"],"capacity":27,"electric_bike_surcharge_waiver":false,"eightd_has_key_dispenser":false,"has_kiosk":true},{"station_id":"66","external_id":"a3a4a71e-a135-11e9-9cda-0a87ae2ba916","name":"Clinton St & Lake St","short_name":"13021","lat":41.885637,"lon":-87.641823,"rental_methods":["CREDITCARD","TRANSITCARD","KEY"],"capacity":23,"electric_bike_surcharge_waiver":false,"eightd_has_key_dispenser":false,"has_kiosk":true},{"station_id":"67","external_id":"a3a4ac3f-a135-11e9-9cda-0a87ae2ba916","name":"Sheffield Ave & Fullerton Ave","short_name":"TA1306000016","lat":41.9256018819,"lon":-87.6537080423,"rental_methods":["CREDITCARD","TRANSITCARD","KEY"],"capacity":27,"electric_bike_surcharge_waiver":false,"eightd_has_key_dispenser":false,"has_kiosk":true},{"station_id":"68","external_id":"a3a4b164-a135-11e9-9cda-0a87ae2ba916","name":"Clinton St & Tilden St","short_name":"13037","lat":41.875885,"lon":-87.640795,"rental_methods":["CREDITCARD","TRANSITCARD","KEY"],"capacity":23,"electric_bike_surcharge_waiver":false,"eightd_has_key_dispenser":false,"has_kiosk":true},{"station_id":"69","external_id":"a3a4b693-a135-11e9-9cda-0a87ae2ba916","name":"Damen Ave & Pierce Ave","short_name":"TA1305000041","lat":41.9093960065,"lon":-87.6776919292,"rental_methods":["CREDITCARD","TRANSITCARD","KEY"],"capacity":23,"electric_bike_surcharge_waiver":false,"eightd_has_key_dispenser":false,"has_kiosk":true},{"station_id":"71","external_id":"a3a4bbba-a135-11e9-9cda-0a87ae2ba916","name":"Morgan St & Lake St","short_name":"TA1306000015","lat":41.8854833079,"lon":-87.6523048564,"rental_methods":["CREDITCARD","TRANSITCARD","KEY"],"capacity":23,"electric_bike_surcharge_waiver":false,"eightd_has_key_dispenser":false,"has_kiosk":true},{"station_id":"72","external_id":"a3a4c0df-a135-11e9-9cda-0a87ae2ba916","name":"Wabash Ave & 16th St","short_name":"SL-012","lat":41.860384,"lon":-87.625813,"rental_methods":["CREDITCARD","TRANSITCARD","KEY"],"capacity":39,"electric_bike_surcharge_waiver":false,"eightd_has_key_dispenser":false,"has_kiosk":true},{"station_id":"73","external_id":"a3a4c618-a135-11e9-9cda-0a87ae2ba916","name":"Jefferson St & Monroe St","short_name":"WL-011","lat":41.880422,"lon":-87.642746,"rental_methods":["CREDITCARD","TRANSITCARD","KEY"],"capacity":19,"electric_bike_surcharge_waiver":false,"eightd_has_key_dispenser":false,"has_kiosk":true},{"station_id":"74","external_id":"a3a4cb42-a135-11e9-9cda-0a87ae2ba916","name":"Kingsbury St & Erie St","short_name":"13265","lat":41.89380805624359,"lon":-87.64169722795485,"rental_methods":["CREDITCARD","TRANSITCARD","KEY"],"capacity":23,"electric_bike_surcharge_waiver":false,"eightd_has_key_dispenser":false,"has_kiosk":true},{"station_id":"75","external_id":"a3a4d069-a135-11e9-9cda-0a87ae2ba916","name":"Canal St & Jackson Blvd","short_name":"13138","lat":41.877245,"lon":-87.639366,"rental_methods":["CREDITCARD","TRANSITCARD","KEY"],"capacity":47,"electric_bike_surcharge_waiver":false,"eightd_has_key_dispenser":false,"has_kiosk":true},{"station_id":"76","external_id":"a3a4d588-a135-11e9-9cda-0a87ae2ba916","name":"Lake Shore Dr & Monroe St","short_name":"13300","lat":41.880958,"lon":-87.616743,"rental_methods":["CREDITCARD","TRANSITCARD","KEY"],"capacity":39,"electric_bike_surcharge_waiver":false,"eightd_has_key_dispenser":false,"has_kiosk":true},{"station_id":"77","external_id":"a3a4daa1-a135-11e9-9cda-0a87ae2ba916","name":"Clinton St & Madison St","short_name":"TA1305000032","lat":41.882242,"lon":-87.641066,"rental_methods":["CREDITCARD","TRANSITCARD","KEY"],"capacity":31,"electric_bike_surcharge_waiver":false,"eightd_has_key_dispenser":false,"has_kiosk":true},{"station_id":"80","external_id":"a3a4e4e3-a135-11e9-9cda-0a87ae2ba916","name":"Aberdeen St & Monroe St","short_name":"13156","lat":41.880419,"lon":-87.655519,"rental_methods":["CREDITCARD","TRANSITCARD","KEY"],"capacity":19,"electric_bike_surcharge_waiver":false,"eightd_has_key_dispenser":false,"has_kiosk":true},{"station_id":"81","external_id":"a3a4ea00-a135-11e9-9cda-0a87ae2ba916","name":"Daley Center Plaza","short_name":"TA1306000010","lat":41.884241,"lon":-87.629634,"rental_methods":["CREDITCARD","TRANSITCARD","KEY"],"capacity":39,"electric_bike_surcharge_waiver":false,"eightd_has_key_dispenser":false,"has_kiosk":true},{"station_id":"84","external_id":"a3a4ef26-a135-11e9-9cda-0a87ae2ba916","name":"Milwaukee Ave & Grand Ave","short_name":"13033","lat":41.891578,"lon":-87.648384,"rental_methods":["CREDITCARD","TRANSITCARD","KEY"],"capacity":19,"electric_bike_surcharge_waiver":false,"eightd_has_key_dispenser":false,"has_kiosk":true},{"station_id":"85","external_id":"a3a4f46b-a135-11e9-9cda-0a87ae2ba916","name":"Michigan Ave & Oak St","short_name":"13042","lat":41.90096039,"lon":-87.62377664,"rental_methods":["CREDITCARD","TRANSITCARD","KEY"],"capacity":23,"electric_bike_surcharge_waiver":false,"eightd_has_key_dispenser":false,"has_kiosk":true},{"station_id":"86","external_id":"a3a4f993-a135-11e9-9cda-0a87ae2ba916","name":"Eckhart Park","short_name":"13289","lat":41.89637337,"lon":-87.66098386,"rental_methods":["CREDITCARD","TRANSITCARD","KEY"],"capacity":19,"electric_bike_surcharge_waiver":false,"eightd_has_key_dispenser":false,"has_kiosk":true},{"station_id":"87","external_id":"a3a4fec3-a135-11e9-9cda-0a87ae2ba916","name":"Racine Ave & Fullerton Ave","short_name":"TA1306000026","lat":41.92556258,"lon":-87.65840426,"rental_methods":["CREDITCARD","TRANSITCARD","KEY"],"capacity":19,"electric_bike_surcharge_waiver":false,"eightd_has_key_dispenser":false,"has_kiosk":true},{"station_id":"88","external_id":"a3a503e5-a135-11e9-9cda-0a87ae2ba916","name":"Racine Ave & Randolph St","short_name":"13155","lat":41.884069,"lon":-87.656853,"rental_methods":["CREDITCARD","TRANSITCARD","KEY"],"capacity":19,"electric_bike_surcharge_waiver":false,"eightd_has_key_dispenser":false,"has_kiosk":true},{"station_id":"89","external_id":"a3a50991-a135-11e9-9cda-0a87ae2ba916","name":"Financial Pl & Ida B Wells Dr","short_name":"SL-010","lat":41.8750236280333,"lon":-87.6330940425396,"rental_methods":["CREDITCARD","TRANSITCARD","KEY"],"capacity":31,"electric_bike_surcharge_waiver":false,"eightd_has_key_dispenser":false,"has_kiosk":true},{"station_id":"90","external_id":"a3a50ec8-a135-11e9-9cda-0a87ae2ba916","name":"Millennium Park","short_name":"13008","lat":41.8810317,"lon":-87.62408432,"rental_methods":["CREDITCARD","TRANSITCARD","KEY"],"capacity":47,"electric_bike_surcharge_waiver":false,"eightd_has_key_dispenser":false,"has_kiosk":true},{"station_id":"91","external_id":"a3a513e9-a135-11e9-9cda-0a87ae2ba916","name":"Clinton St & Washington Blvd","short_name":"WL-012","lat":41.88338,"lon":-87.64117,"rental_methods":["CREDITCARD","TRANSITCARD","KEY"],"capacity":31,"electric_bike_surcharge_waiver":false,"eightd_has_key_dispenser":false,"has_kiosk":true},{"station_id":"92","external_id":"a3a51934-a135-11e9-9cda-0a87ae2ba916","name":"Carpenter St & Huron St","short_name":"13196","lat":41.894556,"lon":-87.653449,"rental_methods":["CREDITCARD","TRANSITCARD","KEY"],"capacity":19,"electric_bike_surcharge_waiver":false,"eightd_has_key_dispenser":false,"has_kiosk":true},{"station_id":"93","external_id":"a3a51e6e-a135-11e9-9cda-0a87ae2ba916","name":"Sheffield Ave & Willow St","short_name":"TA1306000032","lat":41.913688,"lon":-87.652855,"rental_methods":["CREDITCARD","TRANSITCARD","KEY"],"capacity":15,"electric_bike_surcharge_waiver":false,"eightd_has_key_dispenser":false,"has_kiosk":true},{"station_id":"94","external_id":"a3a523a6-a135-11e9-9cda-0a87ae2ba916","name":"Clark St & Armitage Ave","short_name":"13146","lat":41.918306,"lon":-87.636282,"rental_methods":["CREDITCARD","TRANSITCARD","KEY"],"capacity":31,"electric_bike_surcharge_waiver":false,"eightd_has_key_dispenser":false,"has_kiosk":true},{"station_id":"95","external_id":"a3a528d0-a135-11e9-9cda-0a87ae2ba916","name":"Stony Island Ave & 64th St","short_name":"KA1503000021","lat":41.778881,"lon":-87.586647,"rental_methods":["CREDITCARD","TRANSITCARD","KEY"],"capacity":11,"electric_bike_surcharge_waiver":false,"eightd_has_key_dispenser":false,"has_kiosk":true},{"station_id":"96","external_id":"a3a52df5-a135-11e9-9cda-0a87ae2ba916","name":"Desplaines St & Randolph St","short_name":"15535","lat":41.88461618962,"lon":-87.6445705849,"rental_methods":["CREDITCARD","TRANSITCARD","KEY"],"capacity":23,"electric_bike_surcharge_waiver":false,"eightd_has_key_dispenser":false,"has_kiosk":true},{"station_id":"97","external_id":"a3a53324-a135-11e9-9cda-0a87ae2ba916","name":"Field Museum","short_name":"13029","lat":41.865312,"lon":-87.617867,"rental_methods":["CREDITCARD","TRANSITCARD","KEY"],"capacity":55,"electric_bike_surcharge_waiver":false,"eightd_has_key_dispenser":false,"has_kiosk":true},{"station_id":"98","external_id":"a3a53843-a135-11e9-9cda-0a87ae2ba916","name":"LaSalle St & Washington St","short_name":"13006","lat":41.882664,"lon":-87.63253,"rental_methods":["CREDITCARD","TRANSITCARD","KEY"],"capacity":15,"electric_bike_surcharge_waiver":false,"eightd_has_key_dispenser":false,"has_kiosk":true},{"station_id":"99","external_id":"a3a53d70-a135-11e9-9cda-0a87ae2ba916","name":"Lake Shore Dr & Ohio St","short_name":"TA1306000029","lat":41.89257,"lon":-87.614492,"rental_methods":["CREDITCARD","TRANSITCARD","KEY"],"capacity":19,"electric_bike_surcharge_waiver":false,"eightd_has_key_dispenser":false,"has_kiosk":true},{"station_id":"100","external_id":"a3a5428e-a135-11e9-9cda-0a87ae2ba916","name":"Orleans St & Merchandise Mart Plaza","short_name":"TA1305000022","lat":41.888243,"lon":-87.63639,"rental_methods":["CREDITCARD","TRANSITCARD","KEY"],"capacity":35,"electric_bike_surcharge_waiver":false,"eightd_has_key_dispenser":false,"has_kiosk":true},{"station_id":"101","external_id":"a3a547b8-a135-11e9-9cda-0a87ae2ba916","name":"63rd St Beach","short_name":"15491","lat":41.78101637196,"lon":-87.5761197602,"rental_methods":["CREDITCARD","TRANSITCARD","KEY"],"capacity":15,"electric_bike_surcharge_waiver":false,"eightd_has_key_dispenser":false,"has_kiosk":true},{"station_id":"102","external_id":"a3a54cdb-a135-11e9-9cda-0a87ae2ba916","name":"Stony Island Ave & 67th St","short_name":"KA1503000023","lat":41.77345849948,"lon":-87.5853397391,"rental_methods":["CREDITCARD","TRANSITCARD","KEY"],"capacity":11,"electric_bike_surcharge_waiver":false,"eightd_has_key_dispenser":false,"has_kiosk":true},{"station_id":"103","external_id":"a3a555e8-a135-11e9-9cda-0a87ae2ba916","name":"Clinton St & Polk St","short_name":"15542","lat":41.87146651779,"lon":-87.6409491327,"rental_methods":["CREDITCARD","TRANSITCARD","KEY"],"capacity":15,"electric_bike_surcharge_waiver":false,"eightd_has_key_dispenser":false,"has_kiosk":true},{"station_id":"106","external_id":"a3a55b3e-a135-11e9-9cda-0a87ae2ba916","name":"State St & Pearson St","short_name":"TA1307000061","lat":41.897448,"lon":-87.628722,"rental_methods":["CREDITCARD","TRANSITCARD","KEY"],"capacity":27,"electric_bike_surcharge_waiver":false,"eightd_has_key_dispenser":false,"has_kiosk":true},{"station_id":"107","external_id":"a3a56075-a135-11e9-9cda-0a87ae2ba916","name":"Desplaines St & Jackson Blvd","short_name":"15539","lat":41.878287,"lon":-87.643909,"rental_methods":["CREDITCARD","TRANSITCARD","KEY"],"capacity":27,"electric_bike_surcharge_waiver":false,"eightd_has_key_dispenser":false,"has_kiosk":true},{"station_id":"108","external_id":"a3a565b1-a135-11e9-9cda-0a87ae2ba916","name":"Halsted St & Polk St","short_name":"TA1307000121","lat":41.87184,"lon":-87.64664,"rental_methods":["CREDITCARD","TRANSITCARD","KEY"],"capacity":19,"electric_bike_surcharge_waiver":false,"eightd_has_key_dispenser":false,"has_kiosk":true},{"station_id":"109","external_id":"a3a56ae5-a135-11e9-9cda-0a87ae2ba916","name":"900 W Harrison St","short_name":"13028","lat":41.874754,"lon":-87.649807,"rental_methods":["CREDITCARD","TRANSITCARD","KEY"],"capacity":19,"electric_bike_surcharge_waiver":false,"eightd_has_key_dispenser":false,"has_kiosk":true},{"station_id":"110","external_id":"a3a5700b-a135-11e9-9cda-0a87ae2ba916","name":"Dearborn St & Erie St","short_name":"13045","lat":41.893992,"lon":-87.629318,"rental_methods":["CREDITCARD","TRANSITCARD","KEY"],"capacity":27,"electric_bike_surcharge_waiver":false,"eightd_has_key_dispenser":false,"has_kiosk":true},{"station_id":"111","external_id":"a3a57527-a135-11e9-9cda-0a87ae2ba916","name":"Sedgwick St & Huron St","short_name":"TA1307000062","lat":41.894666,"lon":-87.638437,"rental_methods":["CREDITCARD","TRANSITCARD","KEY"],"capacity":27,"electric_bike_surcharge_waiver":false,"eightd_has_key_dispenser":false,"has_kiosk":true},{"station_id":"112","external_id":"a3a57a52-a135-11e9-9cda-0a87ae2ba916","name":"Green St & Randolph St","short_name":"13053","lat":41.883668,"lon":-87.64867,"rental_methods":["CREDITCARD","TRANSITCARD","KEY"],"capacity":15,"electric_bike_surcharge_waiver":false,"eightd_has_key_dispenser":false,"has_kiosk":true},{"station_id":"113","external_id":"a3a57f6b-a135-11e9-9cda-0a87ae2ba916","name":"Bissell St & Armitage Ave","short_name":"13059","lat":41.91844,"lon":-87.65222,"rental_methods":["CREDITCARD","TRANSITCARD","KEY"],"capacity":15,"electric_bike_surcharge_waiver":false,"eightd_has_key_dispenser":false,"has_kiosk":true},{"station_id":"114","external_id":"a3a58495-a135-11e9-9cda-0a87ae2ba916","name":"Sheffield Ave & Waveland Ave","short_name":"TA1307000126","lat":41.949399,"lon":-87.654529,"rental_methods":["CREDITCARD","TRANSITCARD","KEY"],"capacity":27,"electric_bike_surcharge_waiver":false,"eightd_has_key_dispenser":false,"has_kiosk":true},{"station_id":"115","external_id":"a3a589b9-a135-11e9-9cda-0a87ae2ba916","name":"Sheffield Ave & Wellington Ave","short_name":"TA1307000052","lat":41.936266,"lon":-87.652662,"rental_methods":["CREDITCARD","TRANSITCARD","KEY"],"capacity":23,"electric_bike_surcharge_waiver":false,"eightd_has_key_dispenser":false,"has_kiosk":true},{"station_id":"116","external_id":"a3a58ee0-a135-11e9-9cda-0a87ae2ba916","name":"Western Ave & Winnebago Ave","short_name":"13068","lat":41.91552,"lon":-87.687022,"rental_methods":["CREDITCARD","TRANSITCARD","KEY"],"capacity":15,"electric_bike_surcharge_waiver":false,"eightd_has_key_dispenser":false,"has_kiosk":true},{"station_id":"117","external_id":"a3a593fc-a135-11e9-9cda-0a87ae2ba916","name":"Wilton Ave & Belmont Ave","short_name":"TA1307000134","lat":41.94018,"lon":-87.65304,"rental_methods":["CREDITCARD","TRANSITCARD","KEY"],"capacity":27,"electric_bike_surcharge_waiver":false,"eightd_has_key_dispenser":false,"has_kiosk":true},{"station_id":"118","external_id":"a3a59915-a135-11e9-9cda-0a87ae2ba916","name":"Sedgwick St & North Ave","short_name":"TA1307000038","lat":41.911386,"lon":-87.638677,"rental_methods":["CREDITCARD","TRANSITCARD","KEY"],"capacity":19,"electric_bike_surcharge_waiver":false,"eightd_has_key_dispenser":false,"has_kiosk":true},{"station_id":"119","external_id":"a3a59ec3-a135-11e9-9cda-0a87ae2ba916","name":"Ashland Ave & Lake St","short_name":"13073","lat":41.88592,"lon":-87.66717,"rental_methods":["CREDITCARD","TRANSITCARD","KEY"],"capacity":19,"electric_bike_surcharge_waiver":false,"eightd_has_key_dispenser":false,"has_kiosk":true},{"station_id":"120","external_id":"a3a5a48b-a135-11e9-9cda-0a87ae2ba916","name":"Wentworth Ave & Cermak Rd (Temp)","short_name":"13075","lat":41.853005,"lon":-87.630578,"rental_methods":["CREDITCARD","TRANSITCARD","KEY"],"capacity":19,"electric_bike_surcharge_waiver":false,"eightd_has_key_dispenser":false,"has_kiosk":true},{"station_id":"121","external_id":"a3a5a9d0-a135-11e9-9cda-0a87ae2ba916","name":"Blackstone Ave & Hyde Park Blvd","short_name":"13398","lat":41.802562,"lon":-87.590368,"rental_methods":["CREDITCARD","TRANSITCARD","KEY"],"capacity":19,"electric_bike_surcharge_waiver":false,"eightd_has_key_dispenser":false,"has_kiosk":true},{"station_id":"122","external_id":"a3a5af44-a135-11e9-9cda-0a87ae2ba916","name":"Ogden Ave & Congress Pkwy","short_name":"13081","lat":41.87501,"lon":-87.67328,"rental_methods":["CREDITCARD","TRANSITCARD","KEY"],"capacity":15,"electric_bike_surcharge_waiver":false,"eightd_has_key_dispenser":false,"has_kiosk":true},{"station_id":"123","external_id":"a3a5b496-a135-11e9-9cda-0a87ae2ba916","name":"California Ave & Milwaukee Ave","short_name":"13084","lat":41.922695,"lon":-87.697153,"rental_methods":["CREDITCARD","TRANSITCARD","KEY"],"capacity":15,"electric_bike_surcharge_waiver":false,"eightd_has_key_dispenser":false,"has_kiosk":true},{"station_id":"124","external_id":"a3a5b9d3-a135-11e9-9cda-0a87ae2ba916","name":"Damen Ave & Cullerton St","short_name":"13089","lat":41.855048,"lon":-87.675726,"rental_methods":["CREDITCARD","TRANSITCARD","KEY"],"capacity":15,"electric_bike_surcharge_waiver":false,"eightd_has_key_dispenser":false,"has_kiosk":true},{"station_id":"125","external_id":"a3a5bf01-a135-11e9-9cda-0a87ae2ba916","name":"Rush St & Hubbard St","short_name":"KA1503000044","lat":41.890173,"lon":-87.626185,"rental_methods":["CREDITCARD","TRANSITCARD","KEY"],"capacity":23,"electric_bike_surcharge_waiver":false,"eightd_has_key_dispenser":false,"has_kiosk":true},{"station_id":"126","external_id":"a3a5c440-a135-11e9-9cda-0a87ae2ba916","name":"Clark St & North Ave","short_name":"13128","lat":41.911974,"lon":-87.631942,"rental_methods":["CREDITCARD","TRANSITCARD","KEY"],"capacity":15,"electric_bike_surcharge_waiver":false,"eightd_has_key_dispenser":false,"has_kiosk":true},{"station_id":"127","external_id":"a3a5c96f-a135-11e9-9cda-0a87ae2ba916","name":"Lincoln Ave & Fullerton Ave","short_name":"TA1309000058","lat":41.925905,"lon":-87.64926,"rental_methods":["CREDITCARD","TRANSITCARD","KEY"],"capacity":15,"electric_bike_surcharge_waiver":false,"eightd_has_key_dispenser":false,"has_kiosk":true},{"station_id":"128","external_id":"a3a5ce97-a135-11e9-9cda-0a87ae2ba916","name":"Damen Ave & Chicago Ave","short_name":"13132","lat":41.895769,"lon":-87.67722,"rental_methods":["CREDITCARD","TRANSITCARD","KEY"],"capacity":19,"electric_bike_surcharge_waiver":false,"eightd_has_key_dispenser":false,"has_kiosk":true},{"station_id":"129","external_id":"a3a5d3bb-a135-11e9-9cda-0a87ae2ba916","name":"Blue Island Ave & 18th St","short_name":"13135","lat":41.857556,"lon":-87.661535,"rental_methods":["CREDITCARD","TRANSITCARD","KEY"],"capacity":15,"electric_bike_surcharge_waiver":false,"eightd_has_key_dispenser":false,"has_kiosk":true},{"station_id":"130","external_id":"a3a5d8db-a135-11e9-9cda-0a87ae2ba916","name":"Damen Ave & Division St","short_name":"13136","lat":41.903266,"lon":-87.678435,"rental_methods":["CREDITCARD","TRANSITCARD","KEY"],"capacity":19,"electric_bike_surcharge_waiver":false,"eightd_has_key_dispenser":false,"has_kiosk":true},{"station_id":"131","external_id":"a3a5de24-a135-11e9-9cda-0a87ae2ba916","name":"Lincoln Ave & Belmont Ave","short_name":"TA1309000042","lat":41.939365,"lon":-87.668385,"rental_methods":["CREDITCARD","TRANSITCARD","KEY"],"capacity":15,"electric_bike_surcharge_waiver":false,"eightd_has_key_dispenser":false,"has_kiosk":true},{"station_id":"132","external_id":"a3a5e353-a135-11e9-9cda-0a87ae2ba916","name":"Wentworth Ave & 24th St (Temp)","short_name":"TA1308000026","lat":41.85008369347577,"lon":-87.6321405172348,"rental_methods":["CREDITCARD","TRANSITCARD","KEY"],"capacity":15,"electric_bike_surcharge_waiver":false,"eightd_has_key_dispenser":false,"has_kiosk":true},{"station_id":"133","external_id":"a3a5eb69-a135-11e9-9cda-0a87ae2ba916","name":"Kingsbury St & Kinzie St","short_name":"KA1503000043","lat":41.88917683258,"lon":-87.6385057718,"rental_methods":["CREDITCARD","TRANSITCARD","KEY"],"capacity":31,"electric_bike_surcharge_waiver":false,"eightd_has_key_dispenser":false,"has_kiosk":true},{"station_id":"134","external_id":"a3a5f0b8-a135-11e9-9cda-0a87ae2ba916","name":"Peoria St & Jackson Blvd","short_name":"13158","lat":41.877749,"lon":-87.649633,"rental_methods":["CREDITCARD","TRANSITCARD","KEY"],"capacity":19,"electric_bike_surcharge_waiver":false,"eightd_has_key_dispenser":false,"has_kiosk":true},{"station_id":"135","external_id":"a3a5f5e6-a135-11e9-9cda-0a87ae2ba916","name":"Halsted St & 21st St","short_name":"13162","lat":41.85378,"lon":-87.64665,"rental_methods":["CREDITCARD","TRANSITCARD","KEY"],"capacity":11,"electric_bike_surcharge_waiver":false,"eightd_has_key_dispenser":false,"has_kiosk":true},{"station_id":"136","external_id":"a3a5fb0d-a135-11e9-9cda-0a87ae2ba916","name":"Racine Ave & 13th St","short_name":"13165","lat":41.865054,"lon":-87.656959,"rental_methods":["CREDITCARD","TRANSITCARD","KEY"],"capacity":15,"electric_bike_surcharge_waiver":false,"eightd_has_key_dispenser":false,"has_kiosk":true},{"station_id":"137","external_id":"a3a6002c-a135-11e9-9cda-0a87ae2ba916","name":"Morgan Ave & 14th Pl","short_name":"TA1306000002","lat":41.862378,"lon":-87.651062,"rental_methods":["CREDITCARD","TRANSITCARD","KEY"],"capacity":15,"electric_bike_surcharge_waiver":false,"eightd_has_key_dispenser":false,"has_kiosk":true},{"station_id":"138","external_id":"a3a6054c-a135-11e9-9cda-0a87ae2ba916","name":"Clybourn Ave & Division St","short_name":"TA1307000115","lat":41.904613,"lon":-87.640552,"rental_methods":["CREDITCARD","TRANSITCARD","KEY"],"capacity":15,"electric_bike_surcharge_waiver":false,"eightd_has_key_dispenser":false,"has_kiosk":true},{"station_id":"140","external_id":"a3a60a65-a135-11e9-9cda-0a87ae2ba916","name":"Dearborn Pkwy & Delaware Pl","short_name":"TA1307000128","lat":41.898969,"lon":-87.629912,"rental_methods":["CREDITCARD","TRANSITCARD","KEY"],"capacity":19,"electric_bike_surcharge_waiver":false,"eightd_has_key_dispenser":false,"has_kiosk":true},{"station_id":"141","external_id":"a3a60f7e-a135-11e9-9cda-0a87ae2ba916","name":"Clark St & Lincoln Ave","short_name":"13179","lat":41.915689,"lon":-87.6346,"rental_methods":["CREDITCARD","TRANSITCARD","KEY"],"capacity":23,"electric_bike_surcharge_waiver":false,"eightd_has_key_dispenser":false,"has_kiosk":true},{"station_id":"142","external_id":"a3a614ad-a135-11e9-9cda-0a87ae2ba916","name":"McClurg Ct & Erie St","short_name":"KA1503000041","lat":41.894503,"lon":-87.617854,"rental_methods":["CREDITCARD","TRANSITCARD","KEY"],"capacity":31,"electric_bike_surcharge_waiver":false,"eightd_has_key_dispenser":false,"has_kiosk":true},{"station_id":"143","external_id":"a3a61a0b-a135-11e9-9cda-0a87ae2ba916","name":"Sedgwick St & Webster Ave","short_name":"13191","lat":41.922167,"lon":-87.638888,"rental_methods":["CREDITCARD","TRANSITCARD","KEY"],"capacity":15,"electric_bike_surcharge_waiver":false,"eightd_has_key_dispenser":false,"has_kiosk":true},{"station_id":"144","external_id":"a3a62025-a135-11e9-9cda-0a87ae2ba916","name":"Larrabee St & Webster Ave","short_name":"13193","lat":41.921822,"lon":-87.64414,"rental_methods":["CREDITCARD","TRANSITCARD","KEY"],"capacity":19,"electric_bike_surcharge_waiver":false,"eightd_has_key_dispenser":false,"has_kiosk":true},{"station_id":"145","external_id":"a3a62566-a135-11e9-9cda-0a87ae2ba916","name":"Mies van der Rohe Way & Chestnut St","short_name":"15529","lat":41.8985866514,"lon":-87.6219152258,"rental_methods":["CREDITCARD","TRANSITCARD","KEY"],"capacity":19,"electric_bike_surcharge_waiver":false,"eightd_has_key_dispenser":false,"has_kiosk":true},{"station_id":"146","external_id":"a3a62aad-a135-11e9-9cda-0a87ae2ba916","name":"Loomis St & Jackson Blvd","short_name":"13206","lat":41.877945,"lon":-87.662007,"rental_methods":["CREDITCARD","TRANSITCARD","KEY"],"capacity":19,"electric_bike_surcharge_waiver":false,"eightd_has_key_dispenser":false,"has_kiosk":true},{"station_id":"147","external_id":"a3a62fc9-a135-11e9-9cda-0a87ae2ba916","name":"Indiana Ave & 26th St","short_name":"TA1307000005","lat":41.845687,"lon":-87.622481,"rental_methods":["CREDITCARD","TRANSITCARD","KEY"],"capacity":15,"electric_bike_surcharge_waiver":false,"eightd_has_key_dispenser":false,"has_kiosk":true},{"station_id":"148","external_id":"a3a634dd-a135-11e9-9cda-0a87ae2ba916","name":"State St & 33rd St","short_name":"13216","lat":41.834734,"lon":-87.625813,"rental_methods":["CREDITCARD","TRANSITCARD","KEY"],"capacity":15,"electric_bike_surcharge_waiver":false,"eightd_has_key_dispenser":false,"has_kiosk":true},{"station_id":"149","external_id":"a3a639f5-a135-11e9-9cda-0a87ae2ba916","name":"Calumet Ave & 33rd St","short_name":"13217","lat":41.8349,"lon":-87.61793,"rental_methods":["CREDITCARD","TRANSITCARD","KEY"],"capacity":11,"electric_bike_surcharge_waiver":false,"eightd_has_key_dispenser":false,"has_kiosk":true},{"station_id":"150","external_id":"a3a640d1-a135-11e9-9cda-0a87ae2ba916","name":"Fort Dearborn Dr & 31st St","short_name":"TA1307000048","lat":41.838556,"lon":-87.608218,"rental_methods":["CREDITCARD","TRANSITCARD","KEY"],"capacity":27,"electric_bike_surcharge_waiver":false,"eightd_has_key_dispenser":false,"has_kiosk":true},{"station_id":"152","external_id":"a3a64639-a135-11e9-9cda-0a87ae2ba916","name":"Lincoln Ave & Diversey Pkwy","short_name":"TA1307000064","lat":41.932225,"lon":-87.658617,"rental_methods":["CREDITCARD","TRANSITCARD","KEY"],"capacity":15,"electric_bike_surcharge_waiver":false,"eightd_has_key_dispenser":false,"has_kiosk":true},{"station_id":"153","external_id":"a3a6c38e-a135-11e9-9cda-0a87ae2ba916","name":"Southport Ave & Wellington Ave","short_name":"TA1307000006","lat":41.935733,"lon":-87.663576,"rental_methods":["CREDITCARD","TRANSITCARD","KEY"],"capacity":19,"electric_bike_surcharge_waiver":false,"eightd_has_key_dispenser":false,"has_kiosk":true},{"station_id":"154","external_id":"a3a6c910-a135-11e9-9cda-0a87ae2ba916","name":"Southport Ave & Belmont Ave","short_name":"13229","lat":41.93949,"lon":-87.66378,"rental_methods":["CREDITCARD","TRANSITCARD","KEY"],"capacity":15,"electric_bike_surcharge_waiver":false,"eightd_has_key_dispenser":false,"has_kiosk":true},{"station_id":"156","external_id":"a3a6ce53-a135-11e9-9cda-0a87ae2ba916","name":"Clark St & Wellington Ave","short_name":"TA1307000136","lat":41.9364968219,"lon":-87.6475386582,"rental_methods":["CREDITCARD","TRANSITCARD","KEY"],"capacity":15,"electric_bike_surcharge_waiver":false,"eightd_has_key_dispenser":false,"has_kiosk":true},{"station_id":"157","external_id":"a3a6d371-a135-11e9-9cda-0a87ae2ba916","name":"Lake Shore Dr & Wellington Ave","short_name":"TA1307000041","lat":41.936637352329704,"lon":-87.63696312904356,"rental_methods":["CREDITCARD","TRANSITCARD","KEY"],"capacity":15,"electric_bike_surcharge_waiver":false,"eightd_has_key_dispenser":false,"has_kiosk":true},{"station_id":"158","external_id":"a3a6d884-a135-11e9-9cda-0a87ae2ba916","name":"Milwaukee Ave & Wabansia Ave","short_name":"13243","lat":41.912616,"lon":-87.681391,"rental_methods":["CREDITCARD","TRANSITCARD","KEY"],"capacity":15,"electric_bike_surcharge_waiver":false,"eightd_has_key_dispenser":false,"has_kiosk":true},{"station_id":"159","external_id":"a3a6de38-a135-11e9-9cda-0a87ae2ba916","name":"Claremont Ave & Hirsch St","short_name":"13245","lat":41.907781,"lon":-87.685854,"rental_methods":["CREDITCARD","TRANSITCARD","KEY"],"capacity":11,"electric_bike_surcharge_waiver":false,"eightd_has_key_dispenser":false,"has_kiosk":true},{"station_id":"160","external_id":"a3a6e359-a135-11e9-9cda-0a87ae2ba916","name":"Campbell Ave & North Ave","short_name":"13257","lat":41.910535,"lon":-87.689556,"rental_methods":["CREDITCARD","TRANSITCARD","KEY"],"capacity":15,"electric_bike_surcharge_waiver":false,"eightd_has_key_dispenser":false,"has_kiosk":true},{"station_id":"161","external_id":"a3a6e866-a135-11e9-9cda-0a87ae2ba916","name":"Rush St & Superior St","short_name":"15530","lat":41.89576474564,"lon":-87.6259080327,"rental_methods":["CREDITCARD","TRANSITCARD","KEY"],"capacity":23,"electric_bike_surcharge_waiver":false,"eightd_has_key_dispenser":false,"has_kiosk":true},{"station_id":"162","external_id":"a3a6ed98-a135-11e9-9cda-0a87ae2ba916","name":"Damen Ave & Wellington Ave","short_name":"13268","lat":41.93588,"lon":-87.67842,"rental_methods":["CREDITCARD","TRANSITCARD","KEY"],"capacity":15,"electric_bike_surcharge_waiver":false,"eightd_has_key_dispenser":false,"has_kiosk":true},{"station_id":"163","external_id":"a3a6f2a2-a135-11e9-9cda-0a87ae2ba916","name":"Damen Ave & Clybourn Ave","short_name":"13271","lat":41.931931,"lon":-87.677856,"rental_methods":["CREDITCARD","TRANSITCARD","KEY"],"capacity":15,"electric_bike_surcharge_waiver":false,"eightd_has_key_dispenser":false,"has_kiosk":true},{"station_id":"164","external_id":"a3a6f7a5-a135-11e9-9cda-0a87ae2ba916","name":"Franklin St & Lake St","short_name":"TA1307000111","lat":41.885837,"lon":-87.6355,"rental_methods":["CREDITCARD","TRANSITCARD","KEY"],"capacity":27,"electric_bike_surcharge_waiver":false,"eightd_has_key_dispenser":false,"has_kiosk":true},{"station_id":"165","external_id":"a3a6fcac-a135-11e9-9cda-0a87ae2ba916","name":"Clark St & Grace St","short_name":"TA1307000127","lat":41.95078,"lon":-87.659172,"rental_methods":["CREDITCARD","TRANSITCARD","KEY"],"capacity":23,"electric_bike_surcharge_waiver":false,"eightd_has_key_dispenser":false,"has_kiosk":true},{"station_id":"166","external_id":"a3a701b8-a135-11e9-9cda-0a87ae2ba916","name":"Ashland Ave & Wrightwood Ave","short_name":"13296","lat":41.92883,"lon":-87.668507,"rental_methods":["CREDITCARD","TRANSITCARD","KEY"],"capacity":15,"electric_bike_surcharge_waiver":false,"eightd_has_key_dispenser":false,"has_kiosk":true},{"station_id":"167","external_id":"a3a706c0-a135-11e9-9cda-0a87ae2ba916","name":"Damen Ave & Coulter St","short_name":"TA1307000066","lat":41.8492,"lon":-87.67564,"rental_methods":["CREDITCARD","TRANSITCARD","KEY"],"capacity":7,"electric_bike_surcharge_waiver":false,"eightd_has_key_dispenser":false,"has_kiosk":true},{"station_id":"168","external_id":"a3a70bbd-a135-11e9-9cda-0a87ae2ba916","name":"Michigan Ave & 14th St","short_name":"TA1307000124","lat":41.864059,"lon":-87.623727,"rental_methods":["CREDITCARD","TRANSITCARD","KEY"],"capacity":19,"electric_bike_surcharge_waiver":false,"eightd_has_key_dispenser":false,"has_kiosk":true},{"station_id":"169","external_id":"a3a710c5-a135-11e9-9cda-0a87ae2ba916","name":"Canal St & Harrison St","short_name":"13326","lat":41.874255,"lon":-87.639573,"rental_methods":["CREDITCARD","TRANSITCARD","KEY"],"capacity":15,"electric_bike_surcharge_waiver":false,"eightd_has_key_dispenser":false,"has_kiosk":true},{"station_id":"170","external_id":"a3a715ce-a135-11e9-9cda-0a87ae2ba916","name":"Clinton St & 18th St","short_name":"TA1307000044","lat":41.85795,"lon":-87.640826,"rental_methods":["CREDITCARD","TRANSITCARD","KEY"],"capacity":15,"electric_bike_surcharge_waiver":false,"eightd_has_key_dispenser":false,"has_kiosk":true},{"station_id":"171","external_id":"a3a71b0a-a135-11e9-9cda-0a87ae2ba916","name":"May St & Cullerton St","short_name":"13331","lat":41.855136,"lon":-87.654127,"rental_methods":["CREDITCARD","TRANSITCARD","KEY"],"capacity":11,"electric_bike_surcharge_waiver":false,"eightd_has_key_dispenser":false,"has_kiosk":true},{"station_id":"172","external_id":"a3a72012-a135-11e9-9cda-0a87ae2ba916","name":"Rush St & Cedar St","short_name":"KA1504000133","lat":41.90230870122,"lon":-87.627690528,"rental_methods":["CREDITCARD","TRANSITCARD","KEY"],"capacity":11,"electric_bike_surcharge_waiver":false,"eightd_has_key_dispenser":false,"has_kiosk":true},{"station_id":"173","external_id":"a3a7258b-a135-11e9-9cda-0a87ae2ba916","name":"Mies van der Rohe Way & Chicago Ave","short_name":"13338","lat":41.89691,"lon":-87.621743,"rental_methods":["CREDITCARD","TRANSITCARD","KEY"],"capacity":15,"electric_bike_surcharge_waiver":false,"eightd_has_key_dispenser":false,"has_kiosk":true},{"station_id":"174","external_id":"a3a72aad-a135-11e9-9cda-0a87ae2ba916","name":"Canal St & Madison St","short_name":"13341","lat":41.882091,"lon":-87.639833,"rental_methods":["CREDITCARD","TRANSITCARD","KEY"],"capacity":35,"electric_bike_surcharge_waiver":false,"eightd_has_key_dispenser":false,"has_kiosk":true},{"station_id":"175","external_id":"a3a72fc4-a135-11e9-9cda-0a87ae2ba916","name":"Wells St & Polk St","short_name":"SL-011","lat":41.872596,"lon":-87.633502,"rental_methods":["CREDITCARD","TRANSITCARD","KEY"],"capacity":19,"electric_bike_surcharge_waiver":false,"eightd_has_key_dispenser":false,"has_kiosk":true},{"station_id":"176","external_id":"a3a734ce-a135-11e9-9cda-0a87ae2ba916","name":"Clark St & Elm St","short_name":"TA1307000039","lat":41.902973,"lon":-87.63128,"rental_methods":["CREDITCARD","TRANSITCARD","KEY"],"capacity":39,"electric_bike_surcharge_waiver":false,"eightd_has_key_dispenser":false,"has_kiosk":true},{"station_id":"177","external_id":"a3a739e4-a135-11e9-9cda-0a87ae2ba916","name":"Theater on the Lake","short_name":"TA1308000001","lat":41.926277,"lon":-87.630834,"rental_methods":["CREDITCARD","TRANSITCARD","KEY"],"capacity":31,"electric_bike_surcharge_waiver":false,"eightd_has_key_dispenser":false,"has_kiosk":true},{"station_id":"178","external_id":"a3a73ef1-a135-11e9-9cda-0a87ae2ba916","name":"State St & 19th St","short_name":"SL-013","lat":41.856594,"lon":-87.627542,"rental_methods":["CREDITCARD","TRANSITCARD","KEY"],"capacity":15,"electric_bike_surcharge_waiver":false,"eightd_has_key_dispenser":false,"has_kiosk":true},{"station_id":"179","external_id":"a3a743ff-a135-11e9-9cda-0a87ae2ba916","name":"MLK Jr Dr & Pershing Rd","short_name":"13420","lat":41.8246,"lon":-87.61678,"rental_methods":["CREDITCARD","TRANSITCARD","KEY"],"capacity":15,"electric_bike_surcharge_waiver":false,"eightd_has_key_dispenser":false,"has_kiosk":true},{"station_id":"180","external_id":"a3a74947-a135-11e9-9cda-0a87ae2ba916","name":"Ritchie Ct & Banks St","short_name":"KA1504000134","lat":41.906866,"lon":-87.626217,"rental_methods":["CREDITCARD","TRANSITCARD","KEY"],"capacity":15,"electric_bike_surcharge_waiver":false,"eightd_has_key_dispenser":false,"has_kiosk":true},{"station_id":"181","external_id":"a3a74e60-a135-11e9-9cda-0a87ae2ba916","name":"LaSalle St & Illinois St","short_name":"13430","lat":41.890762,"lon":-87.631697,"rental_methods":["CREDITCARD","TRANSITCARD","KEY"],"capacity":31,"electric_bike_surcharge_waiver":false,"eightd_has_key_dispenser":false,"has_kiosk":true},{"station_id":"182","external_id":"a3a7537c-a135-11e9-9cda-0a87ae2ba916","name":"Wells St & Elm St","short_name":"KA1504000135","lat":41.903222,"lon":-87.634324,"rental_methods":["CREDITCARD","TRANSITCARD","KEY"],"capacity":23,"electric_bike_surcharge_waiver":false,"eightd_has_key_dispenser":false,"has_kiosk":true},{"station_id":"183","external_id":"a3a75885-a135-11e9-9cda-0a87ae2ba916","name":"Damen Ave & Thomas St (Augusta Blvd)","short_name":"TA1307000070","lat":41.901315,"lon":-87.677409,"rental_methods":["CREDITCARD","TRANSITCARD","KEY"],"capacity":23,"electric_bike_surcharge_waiver":false,"eightd_has_key_dispenser":false,"has_kiosk":true},{"station_id":"184","external_id":"a3a75d8a-a135-11e9-9cda-0a87ae2ba916","name":"State St & 35th St","short_name":"TA1307000129","lat":41.8309,"lon":-87.62803,"rental_methods":["CREDITCARD","TRANSITCARD","KEY"],"capacity":19,"electric_bike_surcharge_waiver":false,"eightd_has_key_dispenser":false,"has_kiosk":true},{"station_id":"185","external_id":"a3a762a1-a135-11e9-9cda-0a87ae2ba916","name":"Stave St & Armitage Ave","short_name":"13266","lat":41.917741,"lon":-87.691392,"rental_methods":["CREDITCARD","TRANSITCARD","KEY"],"capacity":11,"electric_bike_surcharge_waiver":false,"eightd_has_key_dispenser":false,"has_kiosk":true},{"station_id":"186","external_id":"a3a767b1-a135-11e9-9cda-0a87ae2ba916","name":"Ogden Ave & Race Ave","short_name":"13194","lat":41.891795,"lon":-87.658751,"rental_methods":["CREDITCARD","TRANSITCARD","KEY"],"capacity":15,"electric_bike_surcharge_waiver":false,"eightd_has_key_dispenser":false,"has_kiosk":true},{"station_id":"188","external_id":"a3a76cb6-a135-11e9-9cda-0a87ae2ba916","name":"Greenview Ave & Fullerton Ave","short_name":"TA1307000001","lat":41.92533,"lon":-87.6658,"rental_methods":["CREDITCARD","TRANSITCARD","KEY"],"capacity":15,"electric_bike_surcharge_waiver":false,"eightd_has_key_dispenser":false,"has_kiosk":true},{"station_id":"190","external_id":"a3a771c2-a135-11e9-9cda-0a87ae2ba916","name":"Southport Ave & Wrightwood Ave","short_name":"TA1307000113","lat":41.928773,"lon":-87.663913,"rental_methods":["CREDITCARD","TRANSITCARD","KEY"],"capacity":15,"electric_bike_surcharge_waiver":false,"eightd_has_key_dispenser":false,"has_kiosk":true},{"station_id":"191","external_id":"a3a7775b-a135-11e9-9cda-0a87ae2ba916","name":"Canal St & Monroe St","short_name":"13056","lat":41.88169,"lon":-87.63953,"rental_methods":["CREDITCARD","TRANSITCARD","KEY"],"capacity":27,"electric_bike_surcharge_waiver":false,"eightd_has_key_dispenser":false,"has_kiosk":true},{"station_id":"192","external_id":"a3a77c8d-a135-11e9-9cda-0a87ae2ba916","name":"Canal St & Adams St","short_name":"13011","lat":41.879255,"lon":-87.639904,"rental_methods":["CREDITCARD","TRANSITCARD","KEY"],"capacity":47,"electric_bike_surcharge_waiver":false,"eightd_has_key_dispenser":false,"has_kiosk":true},{"station_id":"193","external_id":"a3a781a6-a135-11e9-9cda-0a87ae2ba916","name":"State St & 29th St","short_name":"13213","lat":41.841707,"lon":-87.626938,"rental_methods":["CREDITCARD","TRANSITCARD","KEY"],"capacity":11,"electric_bike_surcharge_waiver":false,"eightd_has_key_dispenser":false,"has_kiosk":true},{"station_id":"194","external_id":"a3a786ac-a135-11e9-9cda-0a87ae2ba916","name":"Wabash Ave & Wacker Pl","short_name":"TA1307000131","lat":41.886875,"lon":-87.62603,"rental_methods":["CREDITCARD","TRANSITCARD","KEY"],"capacity":19,"electric_bike_surcharge_waiver":false,"eightd_has_key_dispenser":false,"has_kiosk":true},{"station_id":"195","external_id":"a3a78bc0-a135-11e9-9cda-0a87ae2ba916","name":"Columbus Dr & Randolph St","short_name":"13263","lat":41.884728,"lon":-87.619521,"rental_methods":["CREDITCARD","TRANSITCARD","KEY"],"capacity":55,"electric_bike_surcharge_waiver":false,"eightd_has_key_dispenser":false,"has_kiosk":true},{"station_id":"196","external_id":"a3a790cc-a135-11e9-9cda-0a87ae2ba916","name":"Cityfront Plaza Dr & Pioneer Ct","short_name":"13427","lat":41.890573,"lon":-87.622072,"rental_methods":["CREDITCARD","TRANSITCARD","KEY"],"capacity":31,"electric_bike_surcharge_waiver":false,"eightd_has_key_dispenser":false,"has_kiosk":true},{"station_id":"197","external_id":"a3a795d7-a135-11e9-9cda-0a87ae2ba916","name":"Michigan Ave & Madison St","short_name":"13036","lat":41.882134,"lon":-87.625125,"rental_methods":["CREDITCARD","TRANSITCARD","KEY"],"capacity":19,"electric_bike_surcharge_waiver":false,"eightd_has_key_dispenser":false,"has_kiosk":true},{"station_id":"198","external_id":"a3a79adb-a135-11e9-9cda-0a87ae2ba916","name":"Green St & Madison St","short_name":"TA1307000120","lat":41.881892,"lon":-87.648789,"rental_methods":["CREDITCARD","TRANSITCARD","KEY"],"capacity":27,"electric_bike_surcharge_waiver":false,"eightd_has_key_dispenser":false,"has_kiosk":true},{"station_id":"199","external_id":"a3a79fdc-a135-11e9-9cda-0a87ae2ba916","name":"Wabash Ave & Grand Ave","short_name":"TA1307000117","lat":41.891466,"lon":-87.626761,"rental_methods":["CREDITCARD","TRANSITCARD","KEY"],"capacity":31,"electric_bike_surcharge_waiver":false,"eightd_has_key_dispenser":false,"has_kiosk":true},{"station_id":"200","external_id":"a3a7a4fc-a135-11e9-9cda-0a87ae2ba916","name":"MLK Jr Dr & 47th St","short_name":"TA1308000007","lat":41.809851,"lon":-87.616279,"rental_methods":["CREDITCARD","TRANSITCARD","KEY"],"capacity":11,"electric_bike_surcharge_waiver":false,"eightd_has_key_dispenser":false,"has_kiosk":true},{"station_id":"201","external_id":"a3a7aa0e-a135-11e9-9cda-0a87ae2ba916","name":"Indiana Ave & 40th St","short_name":"13083","lat":41.82168,"lon":-87.6216,"rental_methods":["CREDITCARD","TRANSITCARD","KEY"],"capacity":11,"electric_bike_surcharge_waiver":false,"eightd_has_key_dispenser":false,"has_kiosk":true},{"station_id":"202","external_id":"a3a7af11-a135-11e9-9cda-0a87ae2ba916","name":"Halsted St & 18th St","short_name":"13099","lat":41.857499,"lon":-87.646277,"rental_methods":["CREDITCARD","TRANSITCARD","KEY"],"capacity":15,"electric_bike_surcharge_waiver":false,"eightd_has_key_dispenser":false,"has_kiosk":true},{"station_id":"203","external_id":"a3a7b41d-a135-11e9-9cda-0a87ae2ba916","name":"Western Ave & 21st St","short_name":"13091","lat":41.854109,"lon":-87.685838,"rental_methods":["CREDITCARD","TRANSITCARD","KEY"],"capacity":15,"electric_bike_surcharge_waiver":false,"eightd_has_key_dispenser":false,"has_kiosk":true},{"station_id":"204","external_id":"a3a7b936-a135-11e9-9cda-0a87ae2ba916","name":"Prairie Ave & Garfield Blvd","short_name":"TA1307000160","lat":41.794853,"lon":-87.618691,"rental_methods":["CREDITCARD","TRANSITCARD","KEY"],"capacity":11,"electric_bike_surcharge_waiver":false,"eightd_has_key_dispenser":false,"has_kiosk":true},{"station_id":"205","external_id":"a3a7be40-a135-11e9-9cda-0a87ae2ba916","name":"Paulina St & 18th St","short_name":"TA1307000159","lat":41.857901,"lon":-87.668745,"rental_methods":["CREDITCARD","TRANSITCARD","KEY"],"capacity":15,"electric_bike_surcharge_waiver":false,"eightd_has_key_dispenser":false,"has_kiosk":true},{"station_id":"206","external_id":"a3a7c341-a135-11e9-9cda-0a87ae2ba916","name":"Halsted St & Archer Ave","short_name":"TA1308000013","lat":41.847203,"lon":-87.646795,"rental_methods":["CREDITCARD","TRANSITCARD","KEY"],"capacity":15,"electric_bike_surcharge_waiver":false,"eightd_has_key_dispenser":false,"has_kiosk":true},{"station_id":"207","external_id":"a3a7c852-a135-11e9-9cda-0a87ae2ba916","name":"Emerald Ave & 28th St","short_name":"TA1307000153","lat":41.84358,"lon":-87.645368,"rental_methods":["CREDITCARD","TRANSITCARD","KEY"],"capacity":15,"electric_bike_surcharge_waiver":false,"eightd_has_key_dispenser":false,"has_kiosk":true},{"station_id":"208","external_id":"a3a7cd56-a135-11e9-9cda-0a87ae2ba916","name":"Ashland Ave & 21st St","short_name":"13307","lat":41.85381,"lon":-87.665897,"rental_methods":["CREDITCARD","TRANSITCARD","KEY"],"capacity":15,"electric_bike_surcharge_waiver":false,"eightd_has_key_dispenser":false,"has_kiosk":true},{"station_id":"209","external_id":"a3a7d279-a135-11e9-9cda-0a87ae2ba916","name":"Normal Ave & Archer Ave","short_name":"TA1308000014","lat":41.849527,"lon":-87.640591,"rental_methods":["CREDITCARD","TRANSITCARD","KEY"],"capacity":11,"electric_bike_surcharge_waiver":false,"eightd_has_key_dispenser":false,"has_kiosk":true},{"station_id":"210","external_id":"a3a7d782-a135-11e9-9cda-0a87ae2ba916","name":"Ashland Ave & Division St","short_name":"13061","lat":41.90345,"lon":-87.667747,"rental_methods":["CREDITCARD","TRANSITCARD","KEY"],"capacity":27,"electric_bike_surcharge_waiver":false,"eightd_has_key_dispenser":false,"has_kiosk":true},{"station_id":"211","external_id":"a3a7dc8c-a135-11e9-9cda-0a87ae2ba916","name":"St. Clair St & Erie St","short_name":"13016","lat":41.894448,"lon":-87.622663,"rental_methods":["CREDITCARD","TRANSITCARD","KEY"],"capacity":19,"electric_bike_surcharge_waiver":false,"eightd_has_key_dispenser":false,"has_kiosk":true},{"station_id":"212","external_id":"a3a7e19b-a135-11e9-9cda-0a87ae2ba916","name":"Wells St & Hubbard St","short_name":"TA1307000151","lat":41.889906,"lon":-87.634266,"rental_methods":["CREDITCARD","TRANSITCARD","KEY"],"capacity":31,"electric_bike_surcharge_waiver":false,"eightd_has_key_dispenser":false,"has_kiosk":true},{"station_id":"213","external_id":"a3a7e69e-a135-11e9-9cda-0a87ae2ba916","name":"Leavitt St & North Ave","short_name":"TA1308000005","lat":41.910153,"lon":-87.68229,"rental_methods":["CREDITCARD","TRANSITCARD","KEY"],"capacity":15,"electric_bike_surcharge_waiver":false,"eightd_has_key_dispenser":false,"has_kiosk":true},{"station_id":"214","external_id":"a3a7eba7-a135-11e9-9cda-0a87ae2ba916","name":"Damen Ave & Grand Ave","short_name":"TA1308000006","lat":41.89122,"lon":-87.67686,"rental_methods":["CREDITCARD","TRANSITCARD","KEY"],"capacity":23,"electric_bike_surcharge_waiver":false,"eightd_has_key_dispenser":false,"has_kiosk":true},{"station_id":"215","external_id":"a3a7f0ba-a135-11e9-9cda-0a87ae2ba916","name":"Damen Ave & Madison St","short_name":"13134","lat":41.88137,"lon":-87.67493,"rental_methods":["CREDITCARD","TRANSITCARD","KEY"],"capacity":15,"electric_bike_surcharge_waiver":false,"eightd_has_key_dispenser":false,"has_kiosk":true},{"station_id":"216","external_id":"a3a7f5ea-a135-11e9-9cda-0a87ae2ba916","name":"California Ave & Division St","short_name":"13256","lat":41.903029,"lon":-87.697474,"rental_methods":["CREDITCARD","TRANSITCARD","KEY"],"capacity":15,"electric_bike_surcharge_waiver":false,"eightd_has_key_dispenser":false,"has_kiosk":true},{"station_id":"217","external_id":"a3a7faf7-a135-11e9-9cda-0a87ae2ba916","name":"Elizabeth (May) St & Fulton St","short_name":"13197","lat":41.886616486027656,"lon":-87.6580399274826,"rental_methods":["CREDITCARD","TRANSITCARD","KEY"],"capacity":15,"electric_bike_surcharge_waiver":false,"eightd_has_key_dispenser":false,"has_kiosk":true},{"station_id":"218","external_id":"a3a80009-a135-11e9-9cda-0a87ae2ba916","name":"Wells St & 19th St","short_name":"SL-006","lat":41.856802,"lon":-87.633879,"rental_methods":["CREDITCARD","TRANSITCARD","KEY"],"capacity":11,"electric_bike_surcharge_waiver":false,"eightd_has_key_dispenser":false,"has_kiosk":true},{"station_id":"219","external_id":"a3a80512-a135-11e9-9cda-0a87ae2ba916","name":"Damen Ave & Cortland St","short_name":"13133","lat":41.915983,"lon":-87.677335,"rental_methods":["CREDITCARD","TRANSITCARD","KEY"],"capacity":19,"electric_bike_surcharge_waiver":false,"eightd_has_key_dispenser":false,"has_kiosk":true},{"station_id":"220","external_id":"a3a80a1e-a135-11e9-9cda-0a87ae2ba916","name":"Clark St & Drummond Pl","short_name":"TA1307000142","lat":41.931248,"lon":-87.644336,"rental_methods":["CREDITCARD","TRANSITCARD","KEY"],"capacity":23,"electric_bike_surcharge_waiver":false,"eightd_has_key_dispenser":false,"has_kiosk":true},{"station_id":"222","external_id":"a3a80f32-a135-11e9-9cda-0a87ae2ba916","name":"Milwaukee Ave & Rockwell St","short_name":"13242","lat":41.920195,"lon":-87.693033,"rental_methods":["CREDITCARD","TRANSITCARD","KEY"],"capacity":19,"electric_bike_surcharge_waiver":false,"eightd_has_key_dispenser":false,"has_kiosk":true},{"station_id":"223","external_id":"a3a817dc-a135-11e9-9cda-0a87ae2ba916","name":"Clifton Ave & Armitage Ave","short_name":"TA1307000163","lat":41.918216,"lon":-87.656936,"rental_methods":["CREDITCARD","TRANSITCARD","KEY"],"capacity":15,"electric_bike_surcharge_waiver":false,"eightd_has_key_dispenser":false,"has_kiosk":true},{"station_id":"224","external_id":"a3a81d33-a135-11e9-9cda-0a87ae2ba916","name":"Halsted St & Willow St","short_name":"TA1307000166","lat":41.913865,"lon":-87.648755,"rental_methods":["CREDITCARD","TRANSITCARD","KEY"],"capacity":19,"electric_bike_surcharge_waiver":false,"eightd_has_key_dispenser":false,"has_kiosk":true},{"station_id":"225","external_id":"a3a8224f-a135-11e9-9cda-0a87ae2ba916","name":"Halsted St & Dickens Ave","short_name":"13192","lat":41.919936,"lon":-87.64883,"rental_methods":["CREDITCARD","TRANSITCARD","KEY"],"capacity":23,"electric_bike_surcharge_waiver":false,"eightd_has_key_dispenser":false,"has_kiosk":true},{"station_id":"226","external_id":"a3a8275e-a135-11e9-9cda-0a87ae2ba916","name":"Racine Ave & Belmont Ave","short_name":"TA1308000019","lat":41.939743,"lon":-87.658865,"rental_methods":["CREDITCARD","TRANSITCARD","KEY"],"capacity":15,"electric_bike_surcharge_waiver":false,"eightd_has_key_dispenser":false,"has_kiosk":true},{"station_id":"227","external_id":"a3a82c6c-a135-11e9-9cda-0a87ae2ba916","name":"Southport Ave & Waveland Ave","short_name":"13235","lat":41.94815,"lon":-87.66394,"rental_methods":["CREDITCARD","TRANSITCARD","KEY"],"capacity":23,"electric_bike_surcharge_waiver":false,"eightd_has_key_dispenser":false,"has_kiosk":true},{"station_id":"228","external_id":"a3a83181-a135-11e9-9cda-0a87ae2ba916","name":"Damen Ave & Melrose Ave","short_name":"13143","lat":41.9406,"lon":-87.6785,"rental_methods":["CREDITCARD","TRANSITCARD","KEY"],"capacity":15,"electric_bike_surcharge_waiver":false,"eightd_has_key_dispenser":false,"has_kiosk":true},{"station_id":"229","external_id":"a3a83698-a135-11e9-9cda-0a87ae2ba916","name":"Southport Ave & Roscoe St","short_name":"13071","lat":41.943739,"lon":-87.66402,"rental_methods":["CREDITCARD","TRANSITCARD","KEY"],"capacity":19,"electric_bike_surcharge_waiver":false,"eightd_has_key_dispenser":false,"has_kiosk":true},{"station_id":"230","external_id":"a3a83ba1-a135-11e9-9cda-0a87ae2ba916","name":"Lincoln Ave & Roscoe St","short_name":"TA1307000138","lat":41.94334,"lon":-87.67097,"rental_methods":["CREDITCARD","TRANSITCARD","KEY"],"capacity":19,"electric_bike_surcharge_waiver":false,"eightd_has_key_dispenser":false,"has_kiosk":true},{"station_id":"231","external_id":"a3a840a6-a135-11e9-9cda-0a87ae2ba916","name":"Sheridan Rd & Montrose Ave","short_name":"TA1307000107","lat":41.96167,"lon":-87.65464,"rental_methods":["CREDITCARD","TRANSITCARD","KEY"],"capacity":23,"electric_bike_surcharge_waiver":false,"eightd_has_key_dispenser":false,"has_kiosk":true},{"station_id":"232","external_id":"a3a845b0-a135-11e9-9cda-0a87ae2ba916","name":"Pine Grove Ave & Waveland Ave","short_name":"TA1307000150","lat":41.949275,"lon":-87.646303,"rental_methods":["CREDITCARD","TRANSITCARD","KEY"],"capacity":23,"electric_bike_surcharge_waiver":false,"eightd_has_key_dispenser":false,"has_kiosk":true},{"station_id":"233","external_id":"a3a84ab4-a135-11e9-9cda-0a87ae2ba916","name":"Sangamon St & Washington Blvd","short_name":"13409","lat":41.883165,"lon":-87.6511,"rental_methods":["CREDITCARD","TRANSITCARD","KEY"],"capacity":15,"electric_bike_surcharge_waiver":false,"eightd_has_key_dispenser":false,"has_kiosk":true},{"station_id":"234","external_id":"a3a84fb8-a135-11e9-9cda-0a87ae2ba916","name":"Clark St & Montrose Ave","short_name":"KA1503000022","lat":41.961588,"lon":-87.666036,"rental_methods":["CREDITCARD","TRANSITCARD","KEY"],"capacity":19,"electric_bike_surcharge_waiver":false,"eightd_has_key_dispenser":false,"has_kiosk":true},{"station_id":"236","external_id":"a3a854bf-a135-11e9-9cda-0a87ae2ba916","name":"Sedgwick St & Schiller St","short_name":"TA1307000143","lat":41.907626,"lon":-87.638566,"rental_methods":["CREDITCARD","TRANSITCARD","KEY"],"capacity":15,"electric_bike_surcharge_waiver":false,"eightd_has_key_dispenser":false,"has_kiosk":true},{"station_id":"237","external_id":"a3a859c4-a135-11e9-9cda-0a87ae2ba916","name":"MLK Jr Dr & 29th St","short_name":"TA1307000139","lat":41.842052,"lon":-87.617,"rental_methods":["CREDITCARD","TRANSITCARD","KEY"],"capacity":19,"electric_bike_surcharge_waiver":false,"eightd_has_key_dispenser":false,"has_kiosk":true},{"station_id":"238","external_id":"a3a85eda-a135-11e9-9cda-0a87ae2ba916","name":"Wolcott (Ravenswood) Ave & Montrose Ave","short_name":"TA1307000144","lat":41.961406,"lon":-87.676169,"rental_methods":["CREDITCARD","TRANSITCARD","KEY"],"capacity":15,"electric_bike_surcharge_waiver":false,"eightd_has_key_dispenser":false,"has_kiosk":true},{"station_id":"239","external_id":"a3a866a5-a135-11e9-9cda-0a87ae2ba916","name":"Western Ave & Leland Ave","short_name":"TA1307000140","lat":41.966555,"lon":-87.688487,"rental_methods":["CREDITCARD","TRANSITCARD","KEY"],"capacity":19,"electric_bike_surcharge_waiver":false,"eightd_has_key_dispenser":false,"has_kiosk":true},{"station_id":"240","external_id":"a3a86c05-a135-11e9-9cda-0a87ae2ba916","name":"Sheridan Rd & Irving Park Rd","short_name":"13063","lat":41.954245,"lon":-87.654406,"rental_methods":["CREDITCARD","TRANSITCARD","KEY"],"capacity":27,"electric_bike_surcharge_waiver":false,"eightd_has_key_dispenser":false,"has_kiosk":true},{"station_id":"241","external_id":"a3a8711c-a135-11e9-9cda-0a87ae2ba916","name":"Morgan St & Polk St","short_name":"TA1307000130","lat":41.871737,"lon":-87.65103,"rental_methods":["CREDITCARD","TRANSITCARD","KEY"],"capacity":19,"electric_bike_surcharge_waiver":false,"eightd_has_key_dispenser":false,"has_kiosk":true},{"station_id":"242","external_id":"a3a87631-a135-11e9-9cda-0a87ae2ba916","name":"Damen Ave & Leland Ave","short_name":"TA1307000158","lat":41.967094,"lon":-87.679028,"rental_methods":["CREDITCARD","TRANSITCARD","KEY"],"capacity":15,"electric_bike_surcharge_waiver":false,"eightd_has_key_dispenser":false,"has_kiosk":true},{"station_id":"243","external_id":"a3a87b3f-a135-11e9-9cda-0a87ae2ba916","name":"Lincoln Ave & Sunnyside Ave","short_name":"TA1307000156","lat":41.963004,"lon":-87.684781,"rental_methods":["CREDITCARD","TRANSITCARD","KEY"],"capacity":15,"electric_bike_surcharge_waiver":false,"eightd_has_key_dispenser":false,"has_kiosk":true},{"station_id":"244","external_id":"a3a8804b-a135-11e9-9cda-0a87ae2ba916","name":"Ravenswood Ave & Irving Park Rd","short_name":"TA1307000149","lat":41.95469,"lon":-87.67393,"rental_methods":["CREDITCARD","TRANSITCARD","KEY"],"capacity":19,"electric_bike_surcharge_waiver":false,"eightd_has_key_dispenser":false,"has_kiosk":true},{"station_id":"245","external_id":"a3a8855c-a135-11e9-9cda-0a87ae2ba916","name":"Clarendon Ave & Junior Ter","short_name":"13389","lat":41.961004,"lon":-87.649603,"rental_methods":["CREDITCARD","TRANSITCARD","KEY"],"capacity":23,"electric_bike_surcharge_waiver":false,"eightd_has_key_dispenser":false,"has_kiosk":true},{"station_id":"246","external_id":"a3a88a6d-a135-11e9-9cda-0a87ae2ba916","name":"Ashland Ave & Belle Plaine Ave","short_name":"13249","lat":41.956057,"lon":-87.668835,"rental_methods":["CREDITCARD","TRANSITCARD","KEY"],"capacity":11,"electric_bike_surcharge_waiver":false,"eightd_has_key_dispenser":false,"has_kiosk":true},{"station_id":"247","external_id":"a3a88f84-a135-11e9-9cda-0a87ae2ba916","name":"Shore Dr & 55th St","short_name":"TA1308000009","lat":41.795212,"lon":-87.580715,"rental_methods":["CREDITCARD","TRANSITCARD","KEY"],"capacity":19,"electric_bike_surcharge_waiver":false,"eightd_has_key_dispenser":false,"has_kiosk":true},{"station_id":"248","external_id":"a3a89488-a135-11e9-9cda-0a87ae2ba916","name":"Woodlawn Ave & 55th St","short_name":"TA1307000164","lat":41.795264,"lon":-87.596471,"rental_methods":["CREDITCARD","TRANSITCARD","KEY"],"capacity":19,"electric_bike_surcharge_waiver":false,"eightd_has_key_dispenser":false,"has_kiosk":true},{"station_id":"249","external_id":"a3a8999a-a135-11e9-9cda-0a87ae2ba916","name":"Montrose Harbor","short_name":"TA1308000012","lat":41.963982,"lon":-87.638181,"rental_methods":["CREDITCARD","TRANSITCARD","KEY"],"capacity":31,"electric_bike_surcharge_waiver":false,"eightd_has_key_dispenser":false,"has_kiosk":true},{"station_id":"250","external_id":"a3a89ea8-a135-11e9-9cda-0a87ae2ba916","name":"Ashland Ave & Wellington Ave","short_name":"13269","lat":41.936083,"lon":-87.669807,"rental_methods":["CREDITCARD","TRANSITCARD","KEY"],"capacity":19,"electric_bike_surcharge_waiver":false,"eightd_has_key_dispenser":false,"has_kiosk":true},{"station_id":"251","external_id":"a3a9309d-a135-11e9-9cda-0a87ae2ba916","name":"Clarendon Ave & Leland Ave","short_name":"TA1307000119","lat":41.967968,"lon":-87.650001,"rental_methods":["CREDITCARD","TRANSITCARD","KEY"],"capacity":15,"electric_bike_surcharge_waiver":false,"eightd_has_key_dispenser":false,"has_kiosk":true},{"station_id":"252","external_id":"a3a93622-a135-11e9-9cda-0a87ae2ba916","name":"Greenwood Ave & 47th St","short_name":"TA1308000002","lat":41.809835,"lon":-87.599383,"rental_methods":["CREDITCARD","TRANSITCARD","KEY"],"capacity":15,"electric_bike_surcharge_waiver":false,"eightd_has_key_dispenser":false,"has_kiosk":true},{"station_id":"253","external_id":"a3a93b6d-a135-11e9-9cda-0a87ae2ba916","name":"Winthrop Ave & Lawrence Ave","short_name":"TA1308000021","lat":41.968812,"lon":-87.657659,"rental_methods":["CREDITCARD","TRANSITCARD","KEY"],"capacity":15,"electric_bike_surcharge_waiver":false,"eightd_has_key_dispenser":false,"has_kiosk":true},{"station_id":"254","external_id":"a3a940a2-a135-11e9-9cda-0a87ae2ba916","name":"Pine Grove Ave & Irving Park Rd","short_name":"TA1308000022","lat":41.954383,"lon":-87.648043,"rental_methods":["CREDITCARD","TRANSITCARD","KEY"],"capacity":15,"electric_bike_surcharge_waiver":false,"eightd_has_key_dispenser":false,"has_kiosk":true},{"station_id":"255","external_id":"a3a945c0-a135-11e9-9cda-0a87ae2ba916","name":"Indiana Ave & Roosevelt Rd","short_name":"SL-005","lat":41.867888,"lon":-87.623041,"rental_methods":["CREDITCARD","TRANSITCARD","KEY"],"capacity":39,"electric_bike_surcharge_waiver":false,"eightd_has_key_dispenser":false,"has_kiosk":true},{"station_id":"256","external_id":"a3a94bc8-a135-11e9-9cda-0a87ae2ba916","name":"Broadway & Sheridan Rd","short_name":"13323","lat":41.952833,"lon":-87.649993,"rental_methods":["CREDITCARD","TRANSITCARD","KEY"],"capacity":15,"electric_bike_surcharge_waiver":false,"eightd_has_key_dispenser":false,"has_kiosk":true},{"station_id":"257","external_id":"a3a95142-a135-11e9-9cda-0a87ae2ba916","name":"Lincoln Ave & Waveland Ave","short_name":"13253","lat":41.948797,"lon":-87.675278,"rental_methods":["CREDITCARD","TRANSITCARD","KEY"],"capacity":15,"electric_bike_surcharge_waiver":false,"eightd_has_key_dispenser":false,"has_kiosk":true},{"station_id":"258","external_id":"a3a95669-a135-11e9-9cda-0a87ae2ba916","name":"Logan Blvd & Elston Ave","short_name":"TA1308000031","lat":41.929465,"lon":-87.684158,"rental_methods":["CREDITCARD","TRANSITCARD","KEY"],"capacity":27,"electric_bike_surcharge_waiver":false,"eightd_has_key_dispenser":false,"has_kiosk":true},{"station_id":"259","external_id":"a3a95b7a-a135-11e9-9cda-0a87ae2ba916","name":"California Ave & Francis Pl","short_name":"13259","lat":41.918121,"lon":-87.696972,"rental_methods":["CREDITCARD","TRANSITCARD","KEY"],"capacity":15,"electric_bike_surcharge_waiver":false,"eightd_has_key_dispenser":false,"has_kiosk":true},{"station_id":"260","external_id":"a3a9607f-a135-11e9-9cda-0a87ae2ba916","name":"Kedzie Ave & Milwaukee Ave","short_name":"13085","lat":41.929567,"lon":-87.707857,"rental_methods":["CREDITCARD","TRANSITCARD","KEY"],"capacity":35,"electric_bike_surcharge_waiver":false,"eightd_has_key_dispenser":false,"has_kiosk":true},{"station_id":"261","external_id":"a3a965b2-a135-11e9-9cda-0a87ae2ba916","name":"Hermitage Ave & Polk St","short_name":"13080","lat":41.871514,"lon":-87.669886,"rental_methods":["CREDITCARD","TRANSITCARD","KEY"],"capacity":15,"electric_bike_surcharge_waiver":false,"eightd_has_key_dispenser":false,"has_kiosk":true},{"station_id":"262","external_id":"a3a96aca-a135-11e9-9cda-0a87ae2ba916","name":"Halsted St & 37th St","short_name":"TA1307000161","lat":41.827059,"lon":-87.64572,"rental_methods":["CREDITCARD","TRANSITCARD","KEY"],"capacity":11,"electric_bike_surcharge_waiver":false,"eightd_has_key_dispenser":false,"has_kiosk":true},{"station_id":"263","external_id":"a3a96fd5-a135-11e9-9cda-0a87ae2ba916","name":"Rhodes Ave & 32nd St","short_name":"13215","lat":41.836208,"lon":-87.613533,"rental_methods":["CREDITCARD","TRANSITCARD","KEY"],"capacity":11,"electric_bike_surcharge_waiver":false,"eightd_has_key_dispenser":false,"has_kiosk":true},{"station_id":"264","external_id":"a3a974e1-a135-11e9-9cda-0a87ae2ba916","name":"Stetson Ave & South Water St","short_name":"TA1308000029","lat":41.886835,"lon":-87.62232,"rental_methods":["CREDITCARD","TRANSITCARD","KEY"],"capacity":19,"electric_bike_surcharge_waiver":false,"eightd_has_key_dispenser":false,"has_kiosk":true},{"station_id":"265","external_id":"a3a97a01-a135-11e9-9cda-0a87ae2ba916","name":"Cottage Grove Ave & Oakwood Blvd","short_name":"TA1308000038","lat":41.822985,"lon":-87.6071,"rental_methods":["CREDITCARD","TRANSITCARD","KEY"],"capacity":15,"electric_bike_surcharge_waiver":false,"eightd_has_key_dispenser":false,"has_kiosk":true},{"station_id":"267","external_id":"a3a98429-a135-11e9-9cda-0a87ae2ba916","name":"Lake Park Ave & 47th St","short_name":"TA1308000035","lat":41.809443,"lon":-87.591875,"rental_methods":["CREDITCARD","TRANSITCARD","KEY"],"capacity":15,"electric_bike_surcharge_waiver":false,"eightd_has_key_dispenser":false,"has_kiosk":true},{"station_id":"268","external_id":"a3a9892f-a135-11e9-9cda-0a87ae2ba916","name":"Lake Shore Dr & North Blvd","short_name":"LF-005","lat":41.911722,"lon":-87.626804,"rental_methods":["CREDITCARD","TRANSITCARD","KEY"],"capacity":39,"electric_bike_surcharge_waiver":false,"eightd_has_key_dispenser":false,"has_kiosk":true},{"station_id":"270","external_id":"a3a98e37-a135-11e9-9cda-0a87ae2ba916","name":"Stony Island Ave & 75th St","short_name":"KA1503000019","lat":41.7586696704,"lon":-87.586882871,"rental_methods":["CREDITCARD","TRANSITCARD","KEY"],"capacity":11,"electric_bike_surcharge_waiver":false,"eightd_has_key_dispenser":false,"has_kiosk":true},{"station_id":"271","external_id":"a3a99346-a135-11e9-9cda-0a87ae2ba916","name":"Cottage Grove Ave & 43rd St","short_name":"TA1308000023","lat":41.816499,"lon":-87.606582,"rental_methods":["CREDITCARD","TRANSITCARD","KEY"],"capacity":11,"electric_bike_surcharge_waiver":false,"eightd_has_key_dispenser":false,"has_kiosk":true},{"station_id":"272","external_id":"a3a9984a-a135-11e9-9cda-0a87ae2ba916","name":"Indiana Ave & 31st St","short_name":"TA1308000036","lat":41.838842,"lon":-87.621857,"rental_methods":["CREDITCARD","TRANSITCARD","KEY"],"capacity":11,"electric_bike_surcharge_waiver":false,"eightd_has_key_dispenser":false,"has_kiosk":true},{"station_id":"273","external_id":"a3a99d47-a135-11e9-9cda-0a87ae2ba916","name":"Michigan Ave & 18th St","short_name":"13150","lat":41.857813,"lon":-87.62455,"rental_methods":["CREDITCARD","TRANSITCARD","KEY"],"capacity":23,"electric_bike_surcharge_waiver":false,"eightd_has_key_dispenser":false,"has_kiosk":true},{"station_id":"274","external_id":"a3a9a24f-a135-11e9-9cda-0a87ae2ba916","name":"Racine Ave & 15th St","short_name":"13304","lat":41.861267,"lon":-87.656625,"rental_methods":["CREDITCARD","TRANSITCARD","KEY"],"capacity":15,"electric_bike_surcharge_waiver":false,"eightd_has_key_dispenser":false,"has_kiosk":true},{"station_id":"275","external_id":"a3a9a778-a135-11e9-9cda-0a87ae2ba916","name":"Ashland Ave & 13th St","short_name":"13354","lat":41.865234,"lon":-87.666507,"rental_methods":["CREDITCARD","TRANSITCARD","KEY"],"capacity":15,"electric_bike_surcharge_waiver":false,"eightd_has_key_dispenser":false,"has_kiosk":true},{"station_id":"276","external_id":"a3a9acc5-a135-11e9-9cda-0a87ae2ba916","name":"California Ave & North Ave","short_name":"13258","lat":41.91044,"lon":-87.6972,"rental_methods":["CREDITCARD","TRANSITCARD","KEY"],"capacity":11,"electric_bike_surcharge_waiver":false,"eightd_has_key_dispenser":false,"has_kiosk":true},{"station_id":"277","external_id":"a3a9b1d7-a135-11e9-9cda-0a87ae2ba916","name":"Ashland Ave & Grand Ave","short_name":"13434","lat":41.891072,"lon":-87.666611,"rental_methods":["CREDITCARD","TRANSITCARD","KEY"],"capacity":15,"electric_bike_surcharge_waiver":false,"eightd_has_key_dispenser":false,"has_kiosk":true},{"station_id":"278","external_id":"a3a9b6e9-a135-11e9-9cda-0a87ae2ba916","name":"Wallace St & 35th St","short_name":"TA1308000045","lat":41.830629,"lon":-87.64129,"rental_methods":["CREDITCARD","TRANSITCARD","KEY"],"capacity":15,"electric_bike_surcharge_waiver":false,"eightd_has_key_dispenser":false,"has_kiosk":true},{"station_id":"279","external_id":"a3a9bbf0-a135-11e9-9cda-0a87ae2ba916","name":"Halsted St & 35th St","short_name":"TA1308000043","lat":41.830661,"lon":-87.647172,"rental_methods":["CREDITCARD","TRANSITCARD","KEY"],"capacity":15,"electric_bike_surcharge_waiver":false,"eightd_has_key_dispenser":false,"has_kiosk":true},{"station_id":"280","external_id":"a3a9c0f6-a135-11e9-9cda-0a87ae2ba916","name":"Morgan St & 31st St","short_name":"TA1308000046","lat":41.8378,"lon":-87.65114,"rental_methods":["CREDITCARD","TRANSITCARD","KEY"],"capacity":11,"electric_bike_surcharge_waiver":false,"eightd_has_key_dispenser":false,"has_kiosk":true},{"station_id":"281","external_id":"a3a9c5f7-a135-11e9-9cda-0a87ae2ba916","name":"Western Ave & 24th St","short_name":"TA1309000003","lat":41.84847,"lon":-87.685109,"rental_methods":["CREDITCARD","TRANSITCARD","KEY"],"capacity":7,"electric_bike_surcharge_waiver":false,"eightd_has_key_dispenser":false,"has_kiosk":true},{"station_id":"282","external_id":"a3a9cafa-a135-11e9-9cda-0a87ae2ba916","name":"Halsted St & Maxwell St","short_name":"TA1309000001","lat":41.864883,"lon":-87.647071,"rental_methods":["CREDITCARD","TRANSITCARD","KEY"],"capacity":15,"electric_bike_surcharge_waiver":false,"eightd_has_key_dispenser":false,"has_kiosk":true},{"station_id":"283","external_id":"a3a9d00a-a135-11e9-9cda-0a87ae2ba916","name":"LaSalle St & Jackson Blvd","short_name":"TA1309000004","lat":41.878166,"lon":-87.631929,"rental_methods":["CREDITCARD","TRANSITCARD","KEY"],"capacity":35,"electric_bike_surcharge_waiver":false,"eightd_has_key_dispenser":false,"has_kiosk":true},{"station_id":"284","external_id":"a3a9d529-a135-11e9-9cda-0a87ae2ba916","name":"Michigan Ave & Jackson Blvd","short_name":"TA1309000002","lat":41.87785,"lon":-87.62408,"rental_methods":["CREDITCARD","TRANSITCARD","KEY"],"capacity":23,"electric_bike_surcharge_waiver":false,"eightd_has_key_dispenser":false,"has_kiosk":true},{"station_id":"285","external_id":"a3a9da3b-a135-11e9-9cda-0a87ae2ba916","name":"Wood St & Hubbard St","short_name":"13432","lat":41.889899,"lon":-87.671473,"rental_methods":["CREDITCARD","TRANSITCARD","KEY"],"capacity":19,"electric_bike_surcharge_waiver":false,"eightd_has_key_dispenser":false,"has_kiosk":true},{"station_id":"286","external_id":"a3a9df3a-a135-11e9-9cda-0a87ae2ba916","name":"Franklin St & Adams St (Temp)","short_name":"TA1309000008","lat":41.87943409140013,"lon":-87.63550400733948,"rental_methods":["CREDITCARD","TRANSITCARD","KEY"],"capacity":15,"electric_bike_surcharge_waiver":false,"eightd_has_key_dispenser":false,"has_kiosk":true},{"station_id":"287","external_id":"a3a9e44a-a135-11e9-9cda-0a87ae2ba916","name":"Franklin St & Monroe St","short_name":"TA1309000007","lat":41.880317,"lon":-87.635185,"rental_methods":["CREDITCARD","TRANSITCARD","KEY"],"capacity":31,"electric_bike_surcharge_waiver":false,"eightd_has_key_dispenser":false,"has_kiosk":true},{"station_id":"288","external_id":"a3a9ecff-a135-11e9-9cda-0a87ae2ba916","name":"Larrabee St & Armitage Ave","short_name":"TA1309000006","lat":41.918084,"lon":-87.643749,"rental_methods":["CREDITCARD","TRANSITCARD","KEY"],"capacity":15,"electric_bike_surcharge_waiver":false,"eightd_has_key_dispenser":false,"has_kiosk":true},{"station_id":"289","external_id":"a3a9f256-a135-11e9-9cda-0a87ae2ba916","name":"Wells St & Concord Ln","short_name":"TA1308000050","lat":41.912133,"lon":-87.634656,"rental_methods":["CREDITCARD","TRANSITCARD","KEY"],"capacity":19,"electric_bike_surcharge_waiver":false,"eightd_has_key_dispenser":false,"has_kiosk":true},{"station_id":"290","external_id":"a3a9f76a-a135-11e9-9cda-0a87ae2ba916","name":"Kedzie Ave & Palmer Ct","short_name":"13292","lat":41.921525,"lon":-87.707322,"rental_methods":["CREDITCARD","TRANSITCARD","KEY"],"capacity":15,"electric_bike_surcharge_waiver":false,"eightd_has_key_dispenser":false,"has_kiosk":true},{"station_id":"291","external_id":"a3a9fc75-a135-11e9-9cda-0a87ae2ba916","name":"Wells St & Evergreen Ave","short_name":"TA1308000049","lat":41.906724,"lon":-87.63483,"rental_methods":["CREDITCARD","TRANSITCARD","KEY"],"capacity":19,"electric_bike_surcharge_waiver":false,"eightd_has_key_dispenser":false,"has_kiosk":true},{"station_id":"292","external_id":"a3aa017e-a135-11e9-9cda-0a87ae2ba916","name":"Southport Ave & Clark St","short_name":"TA1308000047","lat":41.957081,"lon":-87.664199,"rental_methods":["CREDITCARD","TRANSITCARD","KEY"],"capacity":11,"electric_bike_surcharge_waiver":false,"eightd_has_key_dispenser":false,"has_kiosk":true},{"station_id":"293","external_id":"a3aa0699-a135-11e9-9cda-0a87ae2ba916","name":"Broadway & Wilson Ave","short_name":"13074","lat":41.965221,"lon":-87.658139,"rental_methods":["CREDITCARD","TRANSITCARD","KEY"],"capacity":23,"electric_bike_surcharge_waiver":false,"eightd_has_key_dispenser":false,"has_kiosk":true},{"station_id":"294","external_id":"a3aa0bb7-a135-11e9-9cda-0a87ae2ba916","name":"Broadway & Berwyn Ave","short_name":"13109","lat":41.978353,"lon":-87.659753,"rental_methods":["CREDITCARD","TRANSITCARD","KEY"],"capacity":15,"electric_bike_surcharge_waiver":false,"eightd_has_key_dispenser":false,"has_kiosk":true},{"station_id":"295","external_id":"a3aa10ca-a135-11e9-9cda-0a87ae2ba916","name":"Broadway & Argyle St","short_name":"13108","lat":41.973815,"lon":-87.65966,"rental_methods":["CREDITCARD","TRANSITCARD","KEY"],"capacity":19,"electric_bike_surcharge_waiver":false,"eightd_has_key_dispenser":false,"has_kiosk":true},{"station_id":"296","external_id":"a3aa1623-a135-11e9-9cda-0a87ae2ba916","name":"Broadway & Belmont Ave","short_name":"13277","lat":41.940106,"lon":-87.645451,"rental_methods":["CREDITCARD","TRANSITCARD","KEY"],"capacity":15,"electric_bike_surcharge_waiver":false,"eightd_has_key_dispenser":false,"has_kiosk":true},{"station_id":"297","external_id":"a3aa1b5b-a135-11e9-9cda-0a87ae2ba916","name":"Paulina St & Montrose Ave","short_name":"TA1309000021","lat":41.961507,"lon":-87.671387,"rental_methods":["CREDITCARD","TRANSITCARD","KEY"],"capacity":15,"electric_bike_surcharge_waiver":false,"eightd_has_key_dispenser":false,"has_kiosk":true},{"station_id":"298","external_id":"a3aa2078-a135-11e9-9cda-0a87ae2ba916","name":"Lincoln Ave & Belle Plaine Ave","short_name":"TA1309000026","lat":41.95602,"lon":-87.680293,"rental_methods":["CREDITCARD","TRANSITCARD","KEY"],"capacity":15,"electric_bike_surcharge_waiver":false,"eightd_has_key_dispenser":false,"has_kiosk":true},{"station_id":"299","external_id":"a3aa259c-a135-11e9-9cda-0a87ae2ba916","name":"Halsted St & Roscoe St","short_name":"TA1309000025","lat":41.94367,"lon":-87.64895,"rental_methods":["CREDITCARD","TRANSITCARD","KEY"],"capacity":15,"electric_bike_surcharge_waiver":false,"eightd_has_key_dispenser":false,"has_kiosk":true},{"station_id":"300","external_id":"a3aa2abb-a135-11e9-9cda-0a87ae2ba916","name":"Broadway & Barry Ave","short_name":"13137","lat":41.937725,"lon":-87.644095,"rental_methods":["CREDITCARD","TRANSITCARD","KEY"],"capacity":19,"electric_bike_surcharge_waiver":false,"eightd_has_key_dispenser":false,"has_kiosk":true},{"station_id":"301","external_id":"a3aa2ff4-a135-11e9-9cda-0a87ae2ba916","name":"Clark St & Schiller St","short_name":"TA1309000024","lat":41.907993,"lon":-87.631501,"rental_methods":["CREDITCARD","TRANSITCARD","KEY"],"capacity":19,"electric_bike_surcharge_waiver":false,"eightd_has_key_dispenser":false,"has_kiosk":true},{"station_id":"302","external_id":"a3aa35a4-a135-11e9-9cda-0a87ae2ba916","name":"Sheffield Ave & Wrightwood Ave","short_name":"TA1309000023","lat":41.928712,"lon":-87.653833,"rental_methods":["CREDITCARD","TRANSITCARD","KEY"],"capacity":31,"electric_bike_surcharge_waiver":false,"eightd_has_key_dispenser":false,"has_kiosk":true},{"station_id":"303","external_id":"a3aa3adf-a135-11e9-9cda-0a87ae2ba916","name":"Broadway & Cornelia Ave","short_name":"13278","lat":41.945529,"lon":-87.646439,"rental_methods":["CREDITCARD","TRANSITCARD","KEY"],"capacity":23,"electric_bike_surcharge_waiver":false,"eightd_has_key_dispenser":false,"has_kiosk":true},{"station_id":"304","external_id":"a3aa4017-a135-11e9-9cda-0a87ae2ba916","name":"Broadway & Waveland Ave","short_name":"13325","lat":41.949074,"lon":-87.648636,"rental_methods":["CREDITCARD","TRANSITCARD","KEY"],"capacity":15,"electric_bike_surcharge_waiver":false,"eightd_has_key_dispenser":false,"has_kiosk":true},{"station_id":"305","external_id":"a3aa453c-a135-11e9-9cda-0a87ae2ba916","name":"Western Ave & Division St","short_name":"13241","lat":41.902893,"lon":-87.687275,"rental_methods":["CREDITCARD","TRANSITCARD","KEY"],"capacity":23,"electric_bike_surcharge_waiver":false,"eightd_has_key_dispenser":false,"has_kiosk":true},{"station_id":"306","external_id":"a3aa4a58-a135-11e9-9cda-0a87ae2ba916","name":"Sheridan Rd & Buena Ave","short_name":"TA1309000027","lat":41.958494,"lon":-87.654966,"rental_methods":["CREDITCARD","TRANSITCARD","KEY"],"capacity":19,"electric_bike_surcharge_waiver":false,"eightd_has_key_dispenser":false,"has_kiosk":true},{"station_id":"307","external_id":"a3aa4f80-a135-11e9-9cda-0a87ae2ba916","name":"Southport Ave & Clybourn Ave","short_name":"TA1309000030","lat":41.920771,"lon":-87.663712,"rental_methods":["CREDITCARD","TRANSITCARD","KEY"],"capacity":15,"electric_bike_surcharge_waiver":false,"eightd_has_key_dispenser":false,"has_kiosk":true},{"station_id":"308","external_id":"a3aa54a0-a135-11e9-9cda-0a87ae2ba916","name":"Seeley Ave & Roscoe St","short_name":"13144","lat":41.943403,"lon":-87.679618,"rental_methods":["CREDITCARD","TRANSITCARD","KEY"],"capacity":11,"electric_bike_surcharge_waiver":false,"eightd_has_key_dispenser":false,"has_kiosk":true},{"station_id":"309","external_id":"a3aa59bb-a135-11e9-9cda-0a87ae2ba916","name":"Leavitt St & Armitage Ave","short_name":"TA1309000029","lat":41.917805,"lon":-87.682437,"rental_methods":["CREDITCARD","TRANSITCARD","KEY"],"capacity":11,"electric_bike_surcharge_waiver":false,"eightd_has_key_dispenser":false,"has_kiosk":true},{"station_id":"310","external_id":"a3aa5ed1-a135-11e9-9cda-0a87ae2ba916","name":"Damen Ave & Charleston St","short_name":"13288","lat":41.920082,"lon":-87.677855,"rental_methods":["CREDITCARD","TRANSITCARD","KEY"],"capacity":11,"electric_bike_surcharge_waiver":false,"eightd_has_key_dispenser":false,"has_kiosk":true},{"station_id":"311","external_id":"a3aa640c-a135-11e9-9cda-0a87ae2ba916","name":"Leavitt St & Lawrence Ave","short_name":"TA1309000015","lat":41.968885,"lon":-87.684001,"rental_methods":["CREDITCARD","TRANSITCARD","KEY"],"capacity":19,"electric_bike_surcharge_waiver":false,"eightd_has_key_dispenser":false,"has_kiosk":true},{"station_id":"312","external_id":"a3aa692e-a135-11e9-9cda-0a87ae2ba916","name":"Clarendon Ave & Gordon Ter","short_name":"13379","lat":41.957879,"lon":-87.649519,"rental_methods":["CREDITCARD","TRANSITCARD","KEY"],"capacity":15,"electric_bike_surcharge_waiver":false,"eightd_has_key_dispenser":false,"has_kiosk":true},{"station_id":"313","external_id":"a3aa6e51-a135-11e9-9cda-0a87ae2ba916","name":"Lakeview Ave & Fullerton Pkwy","short_name":"TA1309000019","lat":41.925858,"lon":-87.638973,"rental_methods":["CREDITCARD","TRANSITCARD","KEY"],"capacity":19,"electric_bike_surcharge_waiver":false,"eightd_has_key_dispenser":false,"has_kiosk":true},{"station_id":"314","external_id":"a3aa7373-a135-11e9-9cda-0a87ae2ba916","name":"Ravenswood Ave & Berteau Ave","short_name":"TA1309000018","lat":41.957921,"lon":-87.673567,"rental_methods":["CREDITCARD","TRANSITCARD","KEY"],"capacity":15,"electric_bike_surcharge_waiver":false,"eightd_has_key_dispenser":false,"has_kiosk":true},{"station_id":"315","external_id":"a3aa7897-a135-11e9-9cda-0a87ae2ba916","name":"Elston Ave & Wabansia Ave","short_name":"TA1309000032","lat":41.912919,"lon":-87.664169,"rental_methods":["CREDITCARD","TRANSITCARD","KEY"],"capacity":23,"electric_bike_surcharge_waiver":false,"eightd_has_key_dispenser":false,"has_kiosk":true},{"station_id":"316","external_id":"a3aa7db3-a135-11e9-9cda-0a87ae2ba916","name":"Damen Ave & Sunnyside Ave","short_name":"TA1309000012","lat":41.96325,"lon":-87.679258,"rental_methods":["CREDITCARD","TRANSITCARD","KEY"],"capacity":19,"electric_bike_surcharge_waiver":false,"eightd_has_key_dispenser":false,"has_kiosk":true},{"station_id":"317","external_id":"a3aa82d0-a135-11e9-9cda-0a87ae2ba916","name":"Wood St & Taylor St","short_name":"TA1309000040","lat":41.869154,"lon":-87.671045,"rental_methods":["CREDITCARD","TRANSITCARD","KEY"],"capacity":23,"electric_bike_surcharge_waiver":false,"eightd_has_key_dispenser":false,"has_kiosk":true},{"station_id":"318","external_id":"a3aa8ca0-a135-11e9-9cda-0a87ae2ba916","name":"Southport Ave & Irving Park Rd","short_name":"TA1309000043","lat":41.954177,"lon":-87.664358,"rental_methods":["CREDITCARD","TRANSITCARD","KEY"],"capacity":15,"electric_bike_surcharge_waiver":false,"eightd_has_key_dispenser":false,"has_kiosk":true},{"station_id":"319","external_id":"a3aa91f4-a135-11e9-9cda-0a87ae2ba916","name":"Greenview Ave & Diversey Pkwy","short_name":"13294","lat":41.93258963429789,"lon":-87.66593635082245,"rental_methods":["CREDITCARD","TRANSITCARD","KEY"],"capacity":15,"electric_bike_surcharge_waiver":false,"eightd_has_key_dispenser":false,"has_kiosk":true},{"station_id":"320","external_id":"a3aa9732-a135-11e9-9cda-0a87ae2ba916","name":"Loomis St & Lexington St","short_name":"13332","lat":41.872187,"lon":-87.661501,"rental_methods":["CREDITCARD","TRANSITCARD","KEY"],"capacity":19,"electric_bike_surcharge_waiver":false,"eightd_has_key_dispenser":false,"has_kiosk":true},{"station_id":"321","external_id":"a3aa9c65-a135-11e9-9cda-0a87ae2ba916","name":"Wabash Ave & 9th St","short_name":"TA1309000010","lat":41.870769,"lon":-87.625734,"rental_methods":["CREDITCARD","TRANSITCARD","KEY"],"capacity":19,"electric_bike_surcharge_waiver":false,"eightd_has_key_dispenser":false,"has_kiosk":true},{"station_id":"322","external_id":"a3aaa17b-a135-11e9-9cda-0a87ae2ba916","name":"Kimbark Ave & 53rd St","short_name":"TA1309000037","lat":41.799568,"lon":-87.594747,"rental_methods":["CREDITCARD","TRANSITCARD","KEY"],"capacity":19,"electric_bike_surcharge_waiver":false,"eightd_has_key_dispenser":false,"has_kiosk":true},{"station_id":"323","external_id":"a3aaa68b-a135-11e9-9cda-0a87ae2ba916","name":"Sheridan Rd & Lawrence Ave","short_name":"TA1309000041","lat":41.969517,"lon":-87.654691,"rental_methods":["CREDITCARD","TRANSITCARD","KEY"],"capacity":19,"electric_bike_surcharge_waiver":false,"eightd_has_key_dispenser":false,"has_kiosk":true},{"station_id":"324","external_id":"a3aaaba2-a135-11e9-9cda-0a87ae2ba916","name":"Stockton Dr & Wrightwood Ave","short_name":"13276","lat":41.93132,"lon":-87.638742,"rental_methods":["CREDITCARD","TRANSITCARD","KEY"],"capacity":15,"electric_bike_surcharge_waiver":false,"eightd_has_key_dispenser":false,"has_kiosk":true},{"station_id":"325","external_id":"a3aab0b6-a135-11e9-9cda-0a87ae2ba916","name":"Clark St & Winnemac Ave","short_name":"TA1309000035","lat":41.97334,"lon":-87.66778,"rental_methods":["CREDITCARD","TRANSITCARD","KEY"],"capacity":19,"electric_bike_surcharge_waiver":false,"eightd_has_key_dispenser":false,"has_kiosk":true},{"station_id":"326","external_id":"a3aab5c1-a135-11e9-9cda-0a87ae2ba916","name":"Clark St & Leland Ave","short_name":"TA1309000014","lat":41.967096,"lon":-87.667429,"rental_methods":["CREDITCARD","TRANSITCARD","KEY"],"capacity":19,"electric_bike_surcharge_waiver":false,"eightd_has_key_dispenser":false,"has_kiosk":true},{"station_id":"327","external_id":"a3aabad8-a135-11e9-9cda-0a87ae2ba916","name":"Sheffield Ave & Webster Ave","short_name":"TA1309000033","lat":41.92154,"lon":-87.653818,"rental_methods":["CREDITCARD","TRANSITCARD","KEY"],"capacity":19,"electric_bike_surcharge_waiver":false,"eightd_has_key_dispenser":false,"has_kiosk":true},{"station_id":"328","external_id":"a3aabfe3-a135-11e9-9cda-0a87ae2ba916","name":"Ellis Ave & 58th St","short_name":"TA1309000011","lat":41.788746,"lon":-87.601334,"rental_methods":["CREDITCARD","TRANSITCARD","KEY"],"capacity":19,"electric_bike_surcharge_waiver":false,"eightd_has_key_dispenser":false,"has_kiosk":true},{"station_id":"329","external_id":"a3aac4f9-a135-11e9-9cda-0a87ae2ba916","name":"Lake Shore Dr & Diversey Pkwy","short_name":"TA1309000039","lat":41.932588,"lon":-87.636427,"rental_methods":["CREDITCARD","TRANSITCARD","KEY"],"capacity":23,"electric_bike_surcharge_waiver":false,"eightd_has_key_dispenser":false,"has_kiosk":true},{"station_id":"330","external_id":"a3aaca0e-a135-11e9-9cda-0a87ae2ba916","name":"Lincoln Ave & Addison St","short_name":"TA1309000050","lat":41.946176,"lon":-87.673308,"rental_methods":["CREDITCARD","TRANSITCARD","KEY"],"capacity":19,"electric_bike_surcharge_waiver":false,"eightd_has_key_dispenser":false,"has_kiosk":true},{"station_id":"331","external_id":"a3aacf29-a135-11e9-9cda-0a87ae2ba916","name":"Halsted St & Clybourn Ave","short_name":"331","lat":41.909668,"lon":-87.648128,"rental_methods":["CREDITCARD","TRANSITCARD","KEY"],"capacity":27,"electric_bike_surcharge_waiver":false,"eightd_has_key_dispenser":false,"has_kiosk":true},{"station_id":"332","external_id":"a3aad436-a135-11e9-9cda-0a87ae2ba916","name":"Burling St (Halsted) & Diversey Pkwy (Temp)","short_name":"TA1309000036","lat":41.93314,"lon":-87.64776,"rental_methods":["CREDITCARD","TRANSITCARD","KEY"],"capacity":19,"electric_bike_surcharge_waiver":false,"eightd_has_key_dispenser":false,"has_kiosk":true},{"station_id":"333","external_id":"a3aad940-a135-11e9-9cda-0a87ae2ba916","name":"Ashland Ave & Blackhawk St","short_name":"13224","lat":41.907066,"lon":-87.667252,"rental_methods":["CREDITCARD","TRANSITCARD","KEY"],"capacity":15,"electric_bike_surcharge_waiver":false,"eightd_has_key_dispenser":false,"has_kiosk":true},